[
	{
		"id" : 3,
		"name" : "Школа ІІ-ІІІ ступенів  № 319 імені Валерія Лобановського міста Києва",
		"address" : "проспект Валерія Лобановського, 146, Київ, Україна, 02000",
		"lat" : "50.4071489",
		"lng" : "30.513203",
		"area" : "42 х 22",
		"type" : "футбольні поля",
		"district" : "Голосіївський",
		"fixed" : "Управління освіти",
		"peopleDisabilities" : 0,
		"created_at" : "2021-09-02 11:20:05",
		"updated_at" : "2021-09-02 11:20:05"
	},
	{
		"id" : 4,
		"name" : "Школа І-ІІІ ступенів № 122 міста Києва",
		"address" : "вулиця Китаївська, 22, Київ, Україна, 02000",
		"lat" : "50.3711522",
		"lng" : "30.5414142",
		"area" : "42 х 22",
		"type" : "футбольні поля",
		"district" : "Голосіївський",
		"fixed" : "Управління освіти",
		"peopleDisabilities" : 0,
		"created_at" : "2021-09-06 09:55:04",
		"updated_at" : "2021-09-06 09:59:37"
	},
	{
		"id" : 5,
		"name" : "Гімназія №179 міста Києва",
		"address" : "Голосіївський проспект, 120В, Київ, Україна, 02000",
		"lat" : "50.3864572",
		"lng" : "30.4838625",
		"area" : "42 х 22",
		"type" : "футбольні поля",
		"district" : "Голосіївський",
		"fixed" : "Управління освіти",
		"peopleDisabilities" : 0,
		"created_at" : "2021-09-06 09:59:16",
		"updated_at" : "2021-09-06 09:59:16"
	},
	{
		"id" : 6,
		"name" : "Спеціалізова школа І-ІІІ ступенів з поглибленим вивченням іноземних мов № 220  міста Києва",
		"address" : "вулиця Маршала Якубовського, 7Г, Київ, Україна, 02000",
		"lat" : "50.379364",
		"lng" : "30.45216",
		"area" : "42 х 22",
		"type" : "футбольні поля",
		"district" : "Голосіївський",
		"fixed" : "Управління освіти",
		"peopleDisabilities" : 0,
		"created_at" : "2021-09-06 10:17:27",
		"updated_at" : "2021-09-06 10:17:27"
	},
	{
		"id" : 7,
		"name" : "Спеціалізована школа  І-ІІІ ступенів   з поглибленим вивченням англійської мови №  85 м. Києва",
		"address" : "Голосіївський проспект, 36, Київ, Україна, 02000",
		"lat" : "50.4047452",
		"lng" : "30.5156269",
		"area" : "42 х 22",
		"type" : "футбольні поля",
		"district" : "Голосіївський",
		"fixed" : "Управління освіти",
		"peopleDisabilities" : 0,
		"created_at" : "2021-09-06 10:18:45",
		"updated_at" : "2021-09-06 10:18:45"
	},
	{
		"id" : 8,
		"name" : "Спеціальна школа-інтернат І-ІІІ ступенів № 9 міста Києва",
		"address" : "вулиця Сєченова, 9, Київ, Україна, 02000",
		"lat" : "50.3877454",
		"lng" : "30.4889382",
		"area" : "42 х 22",
		"type" : "футбольні поля",
		"district" : "Голосіївський",
		"fixed" : "Управління освіти",
		"peopleDisabilities" : 0,
		"created_at" : "2021-09-06 10:20:00",
		"updated_at" : "2021-09-06 10:20:07"
	},
	{
		"id" : 9,
		"name" : "Ліцей № 241 «Голосіївський»",
		"address" : "вулиця Голосіївська, 12, Київ, Україна, 02000",
		"lat" : "50.4010807",
		"lng" : "30.5187603",
		"area" : "60х40",
		"type" : "футбольні поля",
		"district" : "Голосіївський",
		"fixed" : "Управління освіти",
		"peopleDisabilities" : 0,
		"created_at" : "2021-09-06 10:36:34",
		"updated_at" : "2021-09-06 10:36:34"
	},
	{
		"id" : 10,
		"name" : "Спеціалізова школа  І-ІІІ ступенів з поглибленим вивченням іноземних мов № 112 імені  Т. Шевченка міста Києва",
		"address" : "вулиця Велика Васильківська, 78, Київ, Україна, 02000",
		"lat" : "50.431127",
		"lng" : "30.5151556",
		"area" : "42 х 22",
		"type" : "футбольні поля",
		"district" : "Голосіївський",
		"fixed" : "Управління освіти",
		"peopleDisabilities" : 0,
		"created_at" : "2021-09-06 10:38:11",
		"updated_at" : "2021-09-06 10:38:11"
	},
	{
		"id" : 15,
		"name" : "Навчально-науковий центр професійно-технічної",
		"address" : "Столичне шосе, 98А, Київ, Україна, 02000",
		"lat" : "50.351545",
		"lng" : "30.546278",
		"area" : "220 м2",
		"type" : "фізкультурно-оздоровчий комплекс",
		"district" : "Голосіївський",
		"fixed" : null,
		"peopleDisabilities" : 0,
		"created_at" : "2021-09-06 14:31:49",
		"updated_at" : "2021-09-06 14:31:49"
	},
	{
		"id" : 16,
		"name" : "Навчально-науковий центр професійно-технічної освіти Академії педагогічних",
		"address" : "вулиця Набережно-Корчуватська, 78, Київ, Україна, 02000",
		"lat" : "50.3668822",
		"lng" : "30.5551457",
		"area" : "96 м2",
		"type" : "майданчик з тренажерним обладнанням",
		"district" : "Голосіївський",
		"fixed" : null,
		"peopleDisabilities" : 0,
		"created_at" : "2021-09-06 14:33:36",
		"updated_at" : "2022-01-05 18:14:24"
	},
	{
		"id" : 17,
		"name" : "Спеціалізована загальноосвітня школа І-ІІІ ступенів з поглибленим вивченням української мови № 127",
		"address" : "вулиця Ялтинська, 13, Київ, Україна, 02000",
		"lat" : "50.4252976",
		"lng" : "30.6560151",
		"area" : "20х20",
		"type" : "футбольні поля",
		"district" : "Дарницький",
		"fixed" : "ДЮСШ «Атлет», ДМС",
		"peopleDisabilities" : 0,
		"created_at" : "2021-09-06 16:32:46",
		"updated_at" : "2021-09-06 16:32:46"
	},
	{
		"id" : 19,
		"name" : "Спортивний комплекс Street workout",
		"address" : "вул. Антоновича, 116, Київ, Україна, 02000",
		"lat" : "50.4226964",
		"lng" : "30.516535",
		"area" : "0,051 га",
		"type" : "спортивний комплекс",
		"district" : "Голосіївський",
		"fixed" : "Безбалансовий",
		"peopleDisabilities" : 0,
		"created_at" : "2022-01-02 21:49:42",
		"updated_at" : "2022-01-08 14:20:47"
	},
	{
		"id" : 20,
		"name" : "Спортивний комплекс Street workout",
		"address" : "вул. Антоновича, 166, Київ, Україна, 02000",
		"lat" : "50.415309",
		"lng" : "30.5206198",
		"area" : "0,005 га",
		"type" : "спортивний комплекс",
		"district" : "Голосіївський",
		"fixed" : "Безбалансовий",
		"peopleDisabilities" : 0,
		"created_at" : "2022-01-02 21:56:48",
		"updated_at" : "2022-01-03 18:10:13"
	},
	{
		"id" : 21,
		"name" : "Футбольне поле",
		"address" : "вул. Антоновича, 169, Київ, Україна, 03150",
		"lat" : "50.4144089",
		"lng" : "30.5227299",
		"area" : "0,024 га",
		"type" : "футбольні поля",
		"district" : "Голосіївський",
		"fixed" : null,
		"peopleDisabilities" : 0,
		"created_at" : "2022-01-02 21:58:28",
		"updated_at" : "2022-01-03 18:09:24"
	},
	{
		"id" : 22,
		"name" : "Футбольне поле",
		"address" : "вулиця Велика Васильківська, 106, Київ, Україна, 02000",
		"lat" : "50.4243237",
		"lng" : "30.5180628",
		"area" : "0,025 га",
		"type" : "футбольні поля",
		"district" : "Голосіївський",
		"fixed" : null,
		"peopleDisabilities" : 0,
		"created_at" : "2022-01-02 22:00:33",
		"updated_at" : "2022-01-03 18:09:13"
	},
	{
		"id" : 24,
		"name" : "Спортивний комплекс Street workout",
		"address" : "вулиця Велика Васильківська, 132, Київ, Україна, 02000",
		"lat" : "50.4152095",
		"lng" : "30.5234218",
		"area" : "0,005 га",
		"type" : "спортивний комплекс",
		"district" : "Голосіївський",
		"fixed" : "Безбалансовий",
		"peopleDisabilities" : 0,
		"created_at" : "2022-01-03 14:54:06",
		"updated_at" : "2022-01-03 18:10:31"
	},
	{
		"id" : 26,
		"name" : "Спортивний комплекс Street workout",
		"address" : "вулиця Велика Васильківська, 134, Київ, Україна, 03150",
		"lat" : "50.4146728",
		"lng" : "30.524123",
		"area" : "0,016 га",
		"type" : "спортивний комплекс",
		"district" : "Голосіївський",
		"fixed" : "Безбалансовий",
		"peopleDisabilities" : 0,
		"created_at" : "2022-01-03 15:01:49",
		"updated_at" : "2022-01-03 18:24:28"
	},
	{
		"id" : 27,
		"name" : "Волейбольний майданчик",
		"address" : "вулиця Саксаганського, 28, Київ, Україна, 02000",
		"lat" : "50.4361226",
		"lng" : "30.5127304",
		"area" : "0,033 га",
		"type" : "волейбольний майданчик",
		"district" : "Голосіївський",
		"fixed" : "Безбалансовий",
		"peopleDisabilities" : 0,
		"created_at" : "2022-01-03 15:40:17",
		"updated_at" : "2022-01-08 14:23:31"
	},
	{
		"id" : 28,
		"name" : "Спортивний комплекс Street workout",
		"address" : "вулиця Бурмистенка, 6К2, Київ, Україна, 02000",
		"lat" : "50.391146",
		"lng" : "30.498964",
		"area" : "0,003 га",
		"type" : "спортивний комплекс",
		"district" : "Голосіївський",
		"fixed" : "Безбалансовий",
		"peopleDisabilities" : 0,
		"created_at" : "2022-01-03 15:43:57",
		"updated_at" : "2022-01-03 18:10:43"
	},
	{
		"id" : 29,
		"name" : "Спортивний комплекс Street workout",
		"address" : "вулиця Бурмистенка, 12, Київ, Україна, 02000",
		"lat" : "50.3939762",
		"lng" : "30.4972916",
		"area" : "0,010 га",
		"type" : "спортивний комплекс",
		"district" : "Голосіївський",
		"fixed" : "Безбалансовий",
		"peopleDisabilities" : 0,
		"created_at" : "2022-01-03 15:45:49",
		"updated_at" : "2022-01-03 18:10:54"
	},
	{
		"id" : 30,
		"name" : "Спортивний комплекс Street workout",
		"address" : "вулиця Васильківська, 5\/7, Київ, Україна, 02000",
		"lat" : "50.39616",
		"lng" : "30.504868",
		"area" : "0,010 га",
		"type" : "спортивний комплекс",
		"district" : "Голосіївський",
		"fixed" : "Безбалансовий",
		"peopleDisabilities" : 0,
		"created_at" : "2022-01-03 16:34:22",
		"updated_at" : "2022-01-03 18:11:20"
	},
	{
		"id" : 31,
		"name" : "Спортивний комплекс Street workout",
		"address" : "вулиця Васильківська, 13, Київ, Україна, 02000",
		"lat" : "50.3948841",
		"lng" : "30.5009151",
		"area" : "0,010 га",
		"type" : "спортивний комплекс",
		"district" : "Голосіївський",
		"fixed" : "Безбалансовий",
		"peopleDisabilities" : 0,
		"created_at" : "2022-01-03 16:36:21",
		"updated_at" : "2022-01-03 18:11:33"
	},
	{
		"id" : 33,
		"name" : "Спортивний комплекс Street workout",
		"address" : "Голосіївський проспект, 90, Київ, Україна, 02000",
		"lat" : "50.3915095",
		"lng" : "30.5026669",
		"area" : "0,010 га",
		"type" : "спортивний комплекс",
		"district" : "Голосіївський",
		"fixed" : "Безбалансовий",
		"peopleDisabilities" : 0,
		"created_at" : "2022-01-03 18:25:47",
		"updated_at" : "2022-01-03 18:25:47"
	},
	{
		"id" : 34,
		"name" : "Спортивний комплекс Street workout",
		"address" : "Голосіївський проспект, 98\/2, Київ, Україна, 02000",
		"lat" : "50.3901231",
		"lng" : "30.4991609",
		"area" : "0,025 га",
		"type" : "спортивний комплекс",
		"district" : "Голосіївський",
		"fixed" : "Безбалансовий",
		"peopleDisabilities" : 0,
		"created_at" : "2022-01-03 18:50:32",
		"updated_at" : "2022-01-03 18:50:32"
	},
	{
		"id" : 35,
		"name" : "Футбольне поле",
		"address" : "вулиця Деміївська, 39, Київ, Україна, 02000",
		"lat" : "50.4005946",
		"lng" : "30.508687",
		"area" : "0,015 га",
		"type" : "футбольні поля",
		"district" : "Голосіївський",
		"fixed" : "Безбалансовий",
		"peopleDisabilities" : 0,
		"created_at" : "2022-01-03 18:54:07",
		"updated_at" : "2022-04-19 22:51:08"
	},
	{
		"id" : 36,
		"name" : "Футбольне поле",
		"address" : "вулиця Деміївська, 51, Київ, Україна, 02000",
		"lat" : "50.3992",
		"lng" : "30.5049779",
		"area" : "0,030 га",
		"type" : "футбольні поля",
		"district" : "Голосіївський",
		"fixed" : "Безбалансовий",
		"peopleDisabilities" : 0,
		"created_at" : "2022-01-03 20:59:43",
		"updated_at" : "2022-04-19 22:51:25"
	},
	{
		"id" : 39,
		"name" : "Спортивний комплекс Street workout",
		"address" : "вулиця Маричанська, 7, Київ, Україна, 02000",
		"lat" : "50.3920622",
		"lng" : "30.5006799",
		"area" : "0,010 га",
		"type" : "спортивний комплекс",
		"district" : "Голосіївський",
		"fixed" : "Безбалансовий",
		"peopleDisabilities" : 0,
		"created_at" : "2022-01-03 21:06:25",
		"updated_at" : "2022-01-03 21:06:25"
	},
	{
		"id" : 40,
		"name" : "Спортивний комплекс Street workout",
		"address" : "вулиця Маричанська, 8, Київ, Україна, 02000",
		"lat" : "50.3934814",
		"lng" : "30.5009995",
		"area" : "0,004 га",
		"type" : "спортивний комплекс",
		"district" : "Голосіївський",
		"fixed" : "Безбалансовий",
		"peopleDisabilities" : 0,
		"created_at" : "2022-01-03 21:08:02",
		"updated_at" : "2022-01-03 21:08:02"
	},
	{
		"id" : 41,
		"name" : "Спортивний комплекс Street workout",
		"address" : "вулиця Маричанська, 13, Київ, Україна, 02000",
		"lat" : "50.3943889",
		"lng" : "30.4992459",
		"area" : "0,003 га",
		"type" : "спортивний комплекс",
		"district" : "Голосіївський",
		"fixed" : "Безбалансовий",
		"peopleDisabilities" : 0,
		"created_at" : "2022-01-03 21:09:43",
		"updated_at" : "2022-01-03 21:09:43"
	},
	{
		"id" : 42,
		"name" : "Спортивний комплекс Street workout",
		"address" : "вулиця Михайла Стельмаха, 12А, Київ, Україна, 02000",
		"lat" : "50.3952308",
		"lng" : "30.5032513",
		"area" : "0,004 га",
		"type" : "спортивний комплекс",
		"district" : "Голосіївський",
		"fixed" : "Безбалансовий",
		"peopleDisabilities" : 0,
		"created_at" : "2022-01-03 21:11:13",
		"updated_at" : "2022-01-03 21:11:13"
	},
	{
		"id" : 44,
		"name" : "Спортивний комплекс Street workout",
		"address" : "вулиця Жилянська, 45, Київ, Україна, 02000",
		"lat" : "50.4343724",
		"lng" : "30.5044779",
		"area" : "0,002 га",
		"type" : "спортивний комплекс",
		"district" : "Голосіївський",
		"fixed" : "Безбалансовий",
		"peopleDisabilities" : 0,
		"created_at" : "2022-01-03 21:14:15",
		"updated_at" : "2022-01-03 21:14:15"
	},
	{
		"id" : 47,
		"name" : "Футбольне поле",
		"address" : "вулиця Василя Яна, 16, Київ, Україна, 02000",
		"lat" : "50.4347687",
		"lng" : "30.5034155",
		"area" : "0,033 га",
		"type" : "футбольні поля",
		"district" : "Голосіївський",
		"fixed" : "Безбалансовий",
		"peopleDisabilities" : 0,
		"created_at" : "2022-01-05 11:28:12",
		"updated_at" : "2022-04-19 22:51:51"
	},
	{
		"id" : 51,
		"name" : "Тенісний корт",
		"address" : "провулок Василя Жуковського, 15, Київ, Україна, 02000",
		"lat" : "50.3930516",
		"lng" : "30.4941861",
		"area" : "0,084 га",
		"type" : "тенісні корти",
		"district" : "Голосіївський",
		"fixed" : "Безбалансовий",
		"peopleDisabilities" : 0,
		"created_at" : "2022-01-05 18:34:19",
		"updated_at" : "2022-04-19 22:50:48"
	},
	{
		"id" : 54,
		"name" : "Спортивний комплекс Street workout",
		"address" : "вулиця Сєченова, 7, Київ, Україна, 02000",
		"lat" : "50.3879437",
		"lng" : "30.4904045",
		"area" : "0,010 га",
		"type" : "спортивний комплекс",
		"district" : "Голосіївський",
		"fixed" : "Безбалансовий",
		"peopleDisabilities" : 0,
		"created_at" : "2022-01-05 18:38:32",
		"updated_at" : "2022-01-05 18:38:32"
	},
	{
		"id" : 55,
		"name" : "Футбольне поле",
		"address" : "вулиця Василя Касіяна, 2Б, Київ, Україна, 02000",
		"lat" : "50.378545",
		"lng" : "30.455531",
		"area" : "0,054 га",
		"type" : "футбольні поля",
		"district" : "Голосіївський",
		"fixed" : "Безбалансовий",
		"peopleDisabilities" : 0,
		"created_at" : "2022-01-05 18:54:40",
		"updated_at" : "2022-04-19 22:52:11"
	},
	{
		"id" : 56,
		"name" : "Спортивний майданчик",
		"address" : "вулиця Василя Касіяна, 6, Київ, Україна, 02000",
		"lat" : "50.3772302",
		"lng" : "30.4552754",
		"area" : "0,054 га",
		"type" : "футбольні поля",
		"district" : "Голосіївський",
		"fixed" : "Безбалансовий",
		"peopleDisabilities" : 0,
		"created_at" : "2022-01-05 19:10:54",
		"updated_at" : "2022-01-05 19:10:54"
	},
	{
		"id" : 57,
		"name" : "Спортивний майданчик, прибудинковий на вул. Василя Касіяна, 6Б",
		"address" : "вулиця Василя Касіяна, 6Б, Київ, Україна, 02000",
		"lat" : "50.377723",
		"lng" : "30.454052",
		"area" : "0,022 га",
		"type" : "спортивний комплекс",
		"district" : "Голосіївський",
		"fixed" : "Безбалансовий",
		"peopleDisabilities" : 0,
		"created_at" : "2022-01-05 19:12:06",
		"updated_at" : "2023-11-30 10:56:31"
	},
	{
		"id" : 58,
		"name" : "Спортивний комплекс Street workout",
		"address" : "вулиця Василя Касіяна, 6Б, Київ, Україна, 02000",
		"lat" : "50.377723",
		"lng" : "30.454052",
		"area" : "0,003 га",
		"type" : "спортивний комплекс",
		"district" : "Голосіївський",
		"fixed" : "Безбалансовий",
		"peopleDisabilities" : 0,
		"created_at" : "2022-01-05 19:13:39",
		"updated_at" : "2022-01-05 19:13:39"
	},
	{
		"id" : 59,
		"name" : "Спортивний комплекс Street workout",
		"address" : "вулиця Василя Касіяна, 10, Київ, Україна, 02000",
		"lat" : "50.3767345",
		"lng" : "30.4539149",
		"area" : "0,003 га",
		"type" : "спортивний комплекс",
		"district" : "Голосіївський",
		"fixed" : "Безбалансовий",
		"peopleDisabilities" : 0,
		"created_at" : "2022-01-05 19:15:12",
		"updated_at" : "2022-01-05 19:15:12"
	},
	{
		"id" : 60,
		"name" : "Спортивний комплекс Street workout",
		"address" : "вулиця Михайла Ломоносова, 77, Київ, Україна, 03189",
		"lat" : "50.3859235",
		"lng" : "30.4678712",
		"area" : "0,007 га",
		"type" : "спортивний комплекс",
		"district" : "Голосіївський",
		"fixed" : "Безбалансовий",
		"peopleDisabilities" : 0,
		"created_at" : "2022-01-05 19:16:21",
		"updated_at" : "2022-01-05 19:16:21"
	},
	{
		"id" : 61,
		"name" : "Спортивний комплекс Street workout",
		"address" : "вулиця Дмитра Луценка, 1К1, Київ, Україна, 02000",
		"lat" : "50.384741",
		"lng" : "30.449083",
		"area" : "0,003 га",
		"type" : "спортивний комплекс",
		"district" : "Голосіївський",
		"fixed" : "Безбалансовий",
		"peopleDisabilities" : 0,
		"created_at" : "2022-01-05 19:18:54",
		"updated_at" : "2022-01-05 19:18:54"
	},
	{
		"id" : 62,
		"name" : "Спортивний комплекс Street workout",
		"address" : "9A, вулиця Дмитра Луценка, 9А, Київ, Україна, 02000",
		"lat" : "50.3834118",
		"lng" : "30.4464874",
		"area" : "0,003 га",
		"type" : "спортивний комплекс",
		"district" : "Голосіївський",
		"fixed" : "Безбалансовий",
		"peopleDisabilities" : 0,
		"created_at" : "2022-01-05 19:20:22",
		"updated_at" : "2022-01-05 19:20:22"
	},
	{
		"id" : 63,
		"name" : "Спортивний комплекс Street workout",
		"address" : "вулиця Дмитра Луценка, 15, Київ, Україна, 02000",
		"lat" : "50.381905",
		"lng" : "30.445066",
		"area" : "0,003 га",
		"type" : "спортивний комплекс",
		"district" : "Голосіївський",
		"fixed" : "Безбалансовий",
		"peopleDisabilities" : 0,
		"created_at" : "2022-01-05 19:21:24",
		"updated_at" : "2022-01-05 19:21:24"
	},
	{
		"id" : 65,
		"name" : "Спортивний майданчик",
		"address" : "вулиця Лятошинського, 8, Київ, Україна, 02000",
		"lat" : "50.3772689",
		"lng" : "30.4510644",
		"area" : "0,054 га",
		"type" : "футбольні поля",
		"district" : "Голосіївський",
		"fixed" : "Безбалансовий",
		"peopleDisabilities" : 0,
		"created_at" : "2022-01-05 19:26:47",
		"updated_at" : "2022-01-05 19:26:47"
	},
	{
		"id" : 66,
		"name" : "Спортивний комплекс Street workout",
		"address" : "вулиця Лятошинського, 14А, Київ, Україна, 02000",
		"lat" : "50.378732",
		"lng" : "30.449673",
		"area" : "0,003 га",
		"type" : "спортивний комплекс",
		"district" : "Голосіївський",
		"fixed" : "Безбалансовий",
		"peopleDisabilities" : 0,
		"created_at" : "2022-01-05 19:27:48",
		"updated_at" : "2022-01-05 19:27:48"
	},
	{
		"id" : 67,
		"name" : "Спортивний майданчик",
		"address" : "вулиця Лятошинського, 18, Київ, Україна, 02000",
		"lat" : "50.3792139",
		"lng" : "30.4483295",
		"area" : "0,054 га",
		"type" : "футбольні поля",
		"district" : "Голосіївський",
		"fixed" : "Безбалансовий",
		"peopleDisabilities" : 0,
		"created_at" : "2022-01-05 19:28:29",
		"updated_at" : "2022-01-05 19:28:29"
	},
	{
		"id" : 68,
		"name" : "Спортивний комплекс Street workout",
		"address" : "вулиця Юрія Смолича, 4, Київ, Україна, 02000",
		"lat" : "50.3912564",
		"lng" : "30.4573348",
		"area" : "0,003 га",
		"type" : "спортивний комплекс",
		"district" : "Голосіївський",
		"fixed" : "Безбалансовий",
		"peopleDisabilities" : 0,
		"created_at" : "2022-01-05 19:29:31",
		"updated_at" : "2022-01-05 19:29:31"
	},
	{
		"id" : 69,
		"name" : "Спортивний комплекс Street workout",
		"address" : "вулиця Юрія Смолича, 6, Київ, Україна, 03191",
		"lat" : "50.3833079",
		"lng" : "30.4516948",
		"area" : "0,003 га",
		"type" : "спортивний комплекс",
		"district" : "Голосіївський",
		"fixed" : "Безбалансовий",
		"peopleDisabilities" : 0,
		"created_at" : "2022-01-05 19:30:32",
		"updated_at" : "2022-01-05 19:30:32"
	},
	{
		"id" : 70,
		"name" : "Спортивний майданчик",
		"address" : "вулиця Юрія Смолича, 6В, Київ, Україна, 02000",
		"lat" : "50.383975",
		"lng" : "30.450052",
		"area" : "0,054 га",
		"type" : "футбольні поля",
		"district" : "Голосіївський",
		"fixed" : "Безбалансовий",
		"peopleDisabilities" : 0,
		"created_at" : "2022-01-05 19:31:28",
		"updated_at" : "2022-01-05 19:31:28"
	},
	{
		"id" : 71,
		"name" : "Спортивний комплекс Street workout",
		"address" : "вулиця Маршала Якубовського, 2, Київ, Україна, 02000",
		"lat" : "50.3796234",
		"lng" : "30.456836",
		"area" : "0,003 га",
		"type" : "спортивний комплекс",
		"district" : "Голосіївський",
		"fixed" : "Безбалансовий",
		"peopleDisabilities" : 0,
		"created_at" : "2022-01-05 19:42:57",
		"updated_at" : "2022-01-05 19:42:57"
	},
	{
		"id" : 73,
		"name" : "Спортивний комплекс Street workout",
		"address" : "проспект Академіка Глушкова, 13, Київ, Україна, 02000",
		"lat" : "50.3670036",
		"lng" : "30.4574543",
		"area" : "0,010 га",
		"type" : "спортивний комплекс",
		"district" : "Голосіївський",
		"fixed" : "Безбалансовий",
		"peopleDisabilities" : 0,
		"created_at" : "2022-01-05 19:45:34",
		"updated_at" : "2022-01-05 19:45:34"
	},
	{
		"id" : 74,
		"name" : "Спортивний майданчик",
		"address" : "проспект Академіка Глушкова, 16, Київ, Україна, 02000",
		"lat" : "50.3688575",
		"lng" : "30.454343",
		"area" : "0,045 га",
		"type" : "футбольні поля",
		"district" : "Голосіївський",
		"fixed" : "КП \"Керуюча компанія з обслуговування житловго фонду Голосіївського р-ну м. Києва\"",
		"peopleDisabilities" : 0,
		"created_at" : "2022-01-05 19:47:04",
		"updated_at" : "2022-01-05 19:47:04"
	},
	{
		"id" : 76,
		"name" : "Баскетбольний майданчик",
		"address" : "проспект Академіка Глушкова, 31, Київ, Україна, 02000",
		"lat" : "50.3665567",
		"lng" : "30.4548487",
		"area" : "0,056 га",
		"type" : "баскетбольний майданчик",
		"district" : "Голосіївський",
		"fixed" : "Безбалансовий",
		"peopleDisabilities" : 0,
		"created_at" : "2022-01-05 19:58:14",
		"updated_at" : "2022-04-19 22:56:02"
	},
	{
		"id" : 77,
		"name" : "Спортивний комплекс Street workout",
		"address" : "проспект Академіка Глушкова, 39, Київ, Україна, 02000",
		"lat" : "50.3656912",
		"lng" : "30.4557684",
		"area" : "0,009 га",
		"type" : "спортивний комплекс",
		"district" : "Голосіївський",
		"fixed" : "Безбалансовий",
		"peopleDisabilities" : 0,
		"created_at" : "2022-01-05 19:59:27",
		"updated_at" : "2022-01-05 19:59:27"
	},
	{
		"id" : 78,
		"name" : "Спортивний комплекс Street workout",
		"address" : "проспект Академіка Глушкова, 49, Київ, Україна, 02000",
		"lat" : "50.3651621",
		"lng" : "30.4536013",
		"area" : "0,009 га",
		"type" : "спортивний комплекс",
		"district" : "Голосіївський",
		"fixed" : "Безбалансовий",
		"peopleDisabilities" : 0,
		"created_at" : "2022-01-05 20:00:28",
		"updated_at" : "2022-01-05 20:00:28"
	},
	{
		"id" : 85,
		"name" : "Спортивний комплекс Street workout",
		"address" : "вул. Академіка Заболотного, 136А, Київ, Україна, 02000",
		"lat" : "50.358548",
		"lng" : "30.471499",
		"area" : "0,009 га",
		"type" : "спортивний комплекс",
		"district" : "Голосіївський",
		"fixed" : "Безбалансовий",
		"peopleDisabilities" : 0,
		"created_at" : "2022-01-05 20:09:35",
		"updated_at" : "2022-01-05 20:09:35"
	},
	{
		"id" : 86,
		"name" : "Спортивний комплекс Street workout",
		"address" : "вул. Академіка Заболотного, 138, Київ, Україна, 02000",
		"lat" : "50.3582115",
		"lng" : "30.4727358",
		"area" : "0,009 га",
		"type" : "спортивний комплекс",
		"district" : "Голосіївський",
		"fixed" : "Безбалансовий",
		"peopleDisabilities" : 0,
		"created_at" : "2022-01-05 20:10:29",
		"updated_at" : "2022-01-05 20:10:29"
	},
	{
		"id" : 87,
		"name" : "Спортивний комплекс Street workout",
		"address" : "вул. Академіка Заболотного, 140, Київ, Україна, 02000",
		"lat" : "50.3579957",
		"lng" : "30.4736858",
		"area" : "0,009 га",
		"type" : "спортивний комплекс",
		"district" : "Голосіївський",
		"fixed" : "Безбалансовий",
		"peopleDisabilities" : 0,
		"created_at" : "2022-01-05 20:31:16",
		"updated_at" : "2022-01-05 20:31:16"
	},
	{
		"id" : 88,
		"name" : "Спортивний комплекс Street workout",
		"address" : "вулиця Метрологічна, 2, Київ, Україна, 02000",
		"lat" : "50.3546256",
		"lng" : "30.4756888",
		"area" : "0,009 га",
		"type" : "спортивний комплекс",
		"district" : "Голосіївський",
		"fixed" : "Безбалансовий",
		"peopleDisabilities" : 0,
		"created_at" : "2022-01-05 20:32:11",
		"updated_at" : "2022-01-05 20:32:11"
	},
	{
		"id" : 89,
		"name" : "Спортивний комплекс Street workout",
		"address" : "вулиця Метрологічна, 14, Київ, Україна, 02000",
		"lat" : "50.3505223",
		"lng" : "30.4757486",
		"area" : "0,009 га",
		"type" : "спортивний комплекс",
		"district" : "Голосіївський",
		"fixed" : "Безбалансовий",
		"peopleDisabilities" : 0,
		"created_at" : "2022-01-05 20:33:24",
		"updated_at" : "2022-01-05 20:33:24"
	},
	{
		"id" : 92,
		"name" : "Спортивний комплекс Street workout",
		"address" : "вулиця Теремківська, 21, Київ, Україна, 02000",
		"lat" : "50.3663778",
		"lng" : "30.4460076",
		"area" : "0,012 га",
		"type" : "спортивний комплекс",
		"district" : "Голосіївський",
		"fixed" : "Безбалансовий",
		"peopleDisabilities" : 0,
		"created_at" : "2022-01-05 20:57:16",
		"updated_at" : "2022-01-05 20:57:16"
	},
	{
		"id" : 93,
		"name" : "Спортивний комплекс Street workout",
		"address" : "вулиця Велика Китаївська, 108, Київ, Україна, 02000",
		"lat" : "50.3977029",
		"lng" : "30.5321899",
		"area" : "0,001 га",
		"type" : "спортивний комплекс",
		"district" : "Голосіївський",
		"fixed" : "Безбалансовий",
		"peopleDisabilities" : 0,
		"created_at" : "2022-01-05 20:59:06",
		"updated_at" : "2022-01-05 20:59:06"
	},
	{
		"id" : 94,
		"name" : "Спортивний майданчик",
		"address" : "вулиця Голосіївська, 3, Київ, Україна, 02000",
		"lat" : "50.4028295",
		"lng" : "30.5234725",
		"area" : "0,076 га",
		"type" : "футбольні поля",
		"district" : "Голосіївський",
		"fixed" : "Безбалансовий",
		"peopleDisabilities" : 0,
		"created_at" : "2022-01-05 21:00:52",
		"updated_at" : "2022-01-05 21:00:52"
	},
	{
		"id" : 98,
		"name" : "Спортивний комплекс Street workout",
		"address" : "вулиця Голосіївська, 10, Київ, Україна, 02000",
		"lat" : "50.4017159",
		"lng" : "30.5203297",
		"area" : "0,002 га",
		"type" : "спортивний комплекс",
		"district" : "Голосіївський",
		"fixed" : "Безбалансовий",
		"peopleDisabilities" : 0,
		"created_at" : "2022-01-05 21:07:24",
		"updated_at" : "2022-01-05 21:07:24"
	},
	{
		"id" : 99,
		"name" : "Спортивний комплекс Street workout",
		"address" : "Голосіївський проспект, 15А, Київ, Україна, 02000",
		"lat" : "50.4029118",
		"lng" : "30.517834",
		"area" : "0,002 га",
		"type" : "спортивний комплекс",
		"district" : "Голосіївський",
		"fixed" : "Безбалансовий",
		"peopleDisabilities" : 0,
		"created_at" : "2022-01-05 21:08:56",
		"updated_at" : "2022-01-05 21:08:56"
	},
	{
		"id" : 100,
		"name" : "Спортивний майданчик",
		"address" : "вулиця Малокитаївська, 3, Київ, Україна, 02000",
		"lat" : "50.3989254",
		"lng" : "30.5273553",
		"area" : "0,038 га",
		"type" : "футбольні поля",
		"district" : "Голосіївський",
		"fixed" : "Безбалансовий",
		"peopleDisabilities" : 0,
		"created_at" : "2022-01-05 21:10:05",
		"updated_at" : "2022-01-05 21:10:05"
	},
	{
		"id" : 102,
		"name" : "Спортивний комплекс Street workout",
		"address" : "Моторний провулок, 5\/7, Київ, Україна, 02000",
		"lat" : "50.3773806",
		"lng" : "30.5388688",
		"area" : "0,002 га",
		"type" : "спортивний комплекс",
		"district" : "Голосіївський",
		"fixed" : "Безбалансовий",
		"peopleDisabilities" : 0,
		"created_at" : "2022-01-05 21:14:26",
		"updated_at" : "2022-01-05 21:14:26"
	},
	{
		"id" : 104,
		"name" : "Спортивний комплекс Street workout",
		"address" : "проспект Науки, 4, Київ, Україна, 03039",
		"lat" : "50.4056152",
		"lng" : "30.520418",
		"area" : "0,003 га",
		"type" : "спортивний комплекс",
		"district" : "Голосіївський",
		"fixed" : "Безбалансовий",
		"peopleDisabilities" : 0,
		"created_at" : "2022-01-05 21:17:19",
		"updated_at" : "2022-01-05 21:17:19"
	},
	{
		"id" : 105,
		"name" : "Спортивний комплекс Street workout",
		"address" : "проспект Науки, 24К2, Київ, Україна, 02000",
		"lat" : "50.398788",
		"lng" : "30.528398",
		"area" : "0,001 га",
		"type" : "спортивний комплекс",
		"district" : "Голосіївський",
		"fixed" : "Безбалансовий",
		"peopleDisabilities" : 0,
		"created_at" : "2022-01-05 21:20:35",
		"updated_at" : "2022-01-05 21:20:35"
	},
	{
		"id" : 107,
		"name" : "Спортивний майданчик",
		"address" : "проспект Науки, 42\/1К8, Київ, Україна, 02000",
		"lat" : "50.388578",
		"lng" : "30.528759",
		"area" : "0,073 га",
		"type" : "футбольні поля",
		"district" : "Голосіївський",
		"fixed" : "Безбалансовий",
		"peopleDisabilities" : 0,
		"created_at" : "2022-01-05 21:27:11",
		"updated_at" : "2022-01-05 21:27:11"
	},
	{
		"id" : 108,
		"name" : "Спортивний майданчик",
		"address" : "проспект Науки, 42\/1К8, Київ, Україна, 02000",
		"lat" : "50.388578",
		"lng" : "30.528759",
		"area" : "0,172 га",
		"type" : "футбольні поля",
		"district" : "Голосіївський",
		"fixed" : "Безбалансовий",
		"peopleDisabilities" : 0,
		"created_at" : "2022-01-06 11:13:43",
		"updated_at" : "2022-01-06 11:13:43"
	},
	{
		"id" : 109,
		"name" : "Спортивний комплекс Street workout",
		"address" : "проспект Науки, 42\/1К8, Київ, Україна, 02000",
		"lat" : "50.388578",
		"lng" : "30.528759",
		"area" : "0,002 га",
		"type" : "спортивний комплекс",
		"district" : "Голосіївський",
		"fixed" : "Безбалансовий",
		"peopleDisabilities" : 0,
		"created_at" : "2022-01-06 11:14:35",
		"updated_at" : "2022-01-06 11:14:35"
	},
	{
		"id" : 110,
		"name" : "Спортивний комплекс Street workout",
		"address" : "Стратегічне шосе, 2А, Київ, Україна, 02000",
		"lat" : "50.399966",
		"lng" : "30.525486",
		"area" : "0,001 га",
		"type" : "спортивний комплекс",
		"district" : "Голосіївський",
		"fixed" : "Безбалансовий",
		"peopleDisabilities" : 0,
		"created_at" : "2022-01-06 11:15:29",
		"updated_at" : "2022-01-06 11:15:29"
	},
	{
		"id" : 111,
		"name" : "Спортивний майданчик",
		"address" : "Стратегічне шосе, 11, Київ, Україна, 02000",
		"lat" : "50.4003778",
		"lng" : "30.5271007",
		"area" : "0,020 га",
		"type" : "футбольні поля",
		"district" : "Голосіївський",
		"fixed" : "Безбалансовий",
		"peopleDisabilities" : 0,
		"created_at" : "2022-01-06 12:17:07",
		"updated_at" : "2022-01-06 12:17:07"
	},
	{
		"id" : 112,
		"name" : "Спортивний комплекс Street workout",
		"address" : "Стратегічне шосе, 11, Київ, Україна, 02000",
		"lat" : "50.4003778",
		"lng" : "30.5271007",
		"area" : "0,002 га",
		"type" : "спортивний комплекс",
		"district" : "Голосіївський",
		"fixed" : "Безбалансовий",
		"peopleDisabilities" : 0,
		"created_at" : "2022-01-06 12:18:35",
		"updated_at" : "2022-01-06 12:18:35"
	},
	{
		"id" : 113,
		"name" : "Спортивний комплекс Street workout",
		"address" : "Стратегічне шосе, 21, Київ, Україна, 02000",
		"lat" : "50.4002434",
		"lng" : "30.5357022",
		"area" : "0,004 га",
		"type" : "спортивний комплекс",
		"district" : "Голосіївський",
		"fixed" : "Безбалансовий",
		"peopleDisabilities" : 0,
		"created_at" : "2022-01-06 12:19:24",
		"updated_at" : "2022-01-06 12:19:24"
	},
	{
		"id" : 114,
		"name" : "Спортивний комплекс Street workout",
		"address" : "вулиця Феодосійська, 4, Київ, Україна, 02000",
		"lat" : "50.4012669",
		"lng" : "30.5352401",
		"area" : "0,002 га",
		"type" : "спортивний комплекс",
		"district" : "Голосіївський",
		"fixed" : "Безбалансовий",
		"peopleDisabilities" : 0,
		"created_at" : "2022-01-06 12:20:02",
		"updated_at" : "2022-01-06 12:20:02"
	},
	{
		"id" : 115,
		"name" : "Спортивний комплекс Street workout",
		"address" : "вулиця Феодосійська, 10, Київ, Україна, 02000",
		"lat" : "50.4004403",
		"lng" : "30.5391674",
		"area" : "0,001 га",
		"type" : "спортивний комплекс",
		"district" : "Голосіївський",
		"fixed" : "Безбалансовий",
		"peopleDisabilities" : 0,
		"created_at" : "2022-01-06 12:20:55",
		"updated_at" : "2022-01-06 12:20:55"
	},
	{
		"id" : 116,
		"name" : "Спортивний комплекс Street workout",
		"address" : "вулиця Набережно-Корчуватська, 56\/66К2, Київ, Україна, 02000",
		"lat" : "50.37027",
		"lng" : "30.550999",
		"area" : "0,008 га",
		"type" : "спортивний комплекс",
		"district" : "Голосіївський",
		"fixed" : "Безбалансовий",
		"peopleDisabilities" : 0,
		"created_at" : "2022-01-06 12:21:51",
		"updated_at" : "2022-01-06 12:21:51"
	},
	{
		"id" : 117,
		"name" : "Спортивний комплекс Street workout",
		"address" : "проспект Науки, 86, Київ, Україна, 02000",
		"lat" : "50.3728076",
		"lng" : "30.5415094",
		"area" : "0,008 га",
		"type" : "спортивний комплекс",
		"district" : "Голосіївський",
		"fixed" : "Безбалансовий",
		"peopleDisabilities" : 0,
		"created_at" : "2022-01-06 12:22:46",
		"updated_at" : "2022-01-06 12:22:46"
	},
	{
		"id" : 118,
		"name" : "Спортивний комплекс Street workout",
		"address" : "проспект Науки, 102, Київ, Україна, 02000",
		"lat" : "50.3717847",
		"lng" : "30.5469083",
		"area" : "0,008 га",
		"type" : "спортивний комплекс",
		"district" : "Голосіївський",
		"fixed" : "Безбалансовий",
		"peopleDisabilities" : 0,
		"created_at" : "2022-01-06 12:23:32",
		"updated_at" : "2022-01-06 12:23:32"
	},
	{
		"id" : 119,
		"name" : "Спортивний комплекс Street workout",
		"address" : "вулиця Новопирогівська, 31, Київ, Україна, 02000",
		"lat" : "50.3645807",
		"lng" : "30.55626",
		"area" : "0,008 га",
		"type" : "спортивний комплекс",
		"district" : "Голосіївський",
		"fixed" : "Безбалансовий",
		"peopleDisabilities" : 0,
		"created_at" : "2022-01-06 12:24:19",
		"updated_at" : "2022-01-06 12:24:19"
	},
	{
		"id" : 120,
		"name" : "Спортивний комплекс Street workout",
		"address" : "вулиця Пирогівський шлях, 48, Київ, Україна, 02000",
		"lat" : "50.3704907",
		"lng" : "30.5458437",
		"area" : "0,008 га",
		"type" : "спортивний комплекс",
		"district" : "Голосіївський",
		"fixed" : "Безбалансовий",
		"peopleDisabilities" : 0,
		"created_at" : "2022-01-06 12:25:09",
		"updated_at" : "2022-01-06 12:25:09"
	},
	{
		"id" : 128,
		"name" : "Спортивний майданчик",
		"address" : "вулиця Михайла Ломоносова, Київ, Україна, 02000",
		"lat" : "50.3895313",
		"lng" : "30.4800003",
		"area" : "інформація відсутня",
		"type" : "футбольні поля",
		"district" : "Голосіївський",
		"fixed" : "ТОВ «Ліко-житлосервіс»",
		"peopleDisabilities" : 0,
		"created_at" : "2022-01-06 12:48:03",
		"updated_at" : "2022-01-06 12:48:03"
	},
	{
		"id" : 150,
		"name" : "ДЮСК \"Успіх\"",
		"address" : "вул. Антоновича, 156, Київ, Україна, 02000",
		"lat" : "50.417338",
		"lng" : "30.519651",
		"area" : "610,4",
		"type" : "фізкультурно-оздоровчий комплекс",
		"district" : "Голосіївський",
		"fixed" : "Фізкультурно-оздоровчий центр \"Централізована система дитячо-юнацьких спортивних клубів за місцем проживання \"Голосієво\"",
		"peopleDisabilities" : 0,
		"created_at" : "2022-01-07 21:18:19",
		"updated_at" : "2022-01-07 21:18:19"
	},
	{
		"id" : 151,
		"name" : "ДЮСК \"Геркулес\"",
		"address" : "Голосіївський проспект, 23, Київ, Україна, 02000",
		"lat" : "50.4009491",
		"lng" : "30.5146064",
		"area" : "167,8",
		"type" : "фізкультурно-оздоровчий комплекс",
		"district" : "Голосіївський",
		"fixed" : "Фізкультурно-оздоровчий центр \"Централізована система дитячо-юнацьких спортивних клубів за місцем проживання \"Голосієво\"",
		"peopleDisabilities" : 0,
		"created_at" : "2022-01-07 21:20:31",
		"updated_at" : "2022-01-07 21:20:52"
	},
	{
		"id" : 152,
		"name" : "ДЮСК \"Титан\"",
		"address" : "вулиця Деміївська, 33, Київ, Україна, 02000",
		"lat" : "50.402467",
		"lng" : "30.5096812",
		"area" : "315,4",
		"type" : "фізкультурно-оздоровчий комплекс",
		"district" : "Голосіївський",
		"fixed" : "Фізкультурно-оздоровчий центр \"Централізована система дитячо-юнацьких спортивних клубів за місцем проживання \"Голосієво\"",
		"peopleDisabilities" : 0,
		"created_at" : "2022-01-07 21:22:13",
		"updated_at" : "2022-01-07 21:22:13"
	},
	{
		"id" : 153,
		"name" : "ДЮСК \"Бадьорість\"",
		"address" : "вулиця Деміївська, 35Б, Київ, Україна, 02000",
		"lat" : "50.399875",
		"lng" : "30.510504",
		"area" : "107,4",
		"type" : "фізкультурно-оздоровчий комплекс",
		"district" : "Голосіївський",
		"fixed" : "Фізкультурно-оздоровчий центр \"Централізована система дитячо-юнацьких спортивних клубів за місцем проживання \"Голосієво\"",
		"peopleDisabilities" : 0,
		"created_at" : "2022-01-07 21:22:59",
		"updated_at" : "2022-01-07 21:22:59"
	},
	{
		"id" : 154,
		"name" : "ДЮСК \"Марафон\"",
		"address" : "вулиця Михайла Ломоносова, 19\/11, Київ, Україна, 02000",
		"lat" : "50.39155",
		"lng" : "30.4943056",
		"area" : "101,9",
		"type" : "фізкультурно-оздоровчий комплекс",
		"district" : "Голосіївський",
		"fixed" : "Фізкультурно-оздоровчий центр \"Централізована система дитячо-юнацьких спортивних клубів за місцем проживання \"Голосієво\"",
		"peopleDisabilities" : 0,
		"created_at" : "2022-01-07 21:23:45",
		"updated_at" : "2022-01-07 21:24:10"
	},
	{
		"id" : 155,
		"name" : "ДЮСК \"Аеліта\"",
		"address" : "проспект Академіка Глушкова, 31А, Київ, Україна, 02000",
		"lat" : "50.366067",
		"lng" : "30.453768",
		"area" : "714,0",
		"type" : "фізкультурно-оздоровчий комплекс",
		"district" : "Голосіївський",
		"fixed" : "Фізкультурно-оздоровчий центр \"Централізована система дитячо-юнацьких спортивних клубів за місцем проживання \"Голосієво\"",
		"peopleDisabilities" : 1,
		"created_at" : "2022-01-07 21:25:33",
		"updated_at" : "2022-01-07 21:25:33"
	},
	{
		"id" : 156,
		"name" : "ДЮСК \"Кремез\"",
		"address" : "вулиця Жилянська, 45, Київ, Україна, 02000",
		"lat" : "50.4343724",
		"lng" : "30.5044779",
		"area" : "134,0",
		"type" : "фізкультурно-оздоровчий комплекс",
		"district" : "Голосіївський",
		"fixed" : "Фізкультурно-оздоровчий центр \"Централізована система дитячо-юнацьких спортивних клубів за місцем проживання \"Голосієво\"",
		"peopleDisabilities" : 0,
		"created_at" : "2022-01-07 21:27:06",
		"updated_at" : "2022-01-07 21:27:06"
	},
	{
		"id" : 157,
		"name" : "ДЮСК \"Пауерспорт\"",
		"address" : "вулиця Михайла Ломоносова, 53, Київ, Україна, 02000",
		"lat" : "50.3884343",
		"lng" : "30.4742559",
		"area" : "270,9",
		"type" : "фізкультурно-оздоровчий комплекс",
		"district" : "Голосіївський",
		"fixed" : "Фізкультурно-оздоровчий центр \"Централізована система дитячо-юнацьких спортивних клубів за місцем проживання \"Голосієво\"",
		"peopleDisabilities" : 0,
		"created_at" : "2022-01-07 21:28:06",
		"updated_at" : "2022-01-07 21:28:06"
	},
	{
		"id" : 158,
		"name" : "ДЮСК \"Корчувате\"",
		"address" : "вулиця Набережно-Корчуватська, 80, Київ, Україна, 02000",
		"lat" : "50.3660653",
		"lng" : "30.5560464",
		"area" : "142,2",
		"type" : "фізкультурно-оздоровчий комплекс",
		"district" : "Голосіївський",
		"fixed" : "Фізкультурно-оздоровчий центр \"Централізована система дитячо-юнацьких спортивних клубів за місцем проживання \"Голосієво\"",
		"peopleDisabilities" : 0,
		"created_at" : "2022-01-07 21:29:07",
		"updated_at" : "2022-01-07 21:29:07"
	},
	{
		"id" : 159,
		"name" : "ДЮСК \"Наука\"",
		"address" : "проспект Науки, 96, Київ, Україна, 02000",
		"lat" : "50.3718765",
		"lng" : "30.5455108",
		"area" : "226,0",
		"type" : "фізкультурно-оздоровчий комплекс",
		"district" : "Голосіївський",
		"fixed" : "Фізкультурно-оздоровчий центр \"Централізована система дитячо-юнацьких спортивних клубів за місцем проживання \"Голосієво\"",
		"peopleDisabilities" : 0,
		"created_at" : "2022-01-07 21:30:13",
		"updated_at" : "2022-01-07 21:30:13"
	},
	{
		"id" : 160,
		"name" : "Приміщення КДЮСШ \"Тріумф\"",
		"address" : "Голосіївський проспект, 59а, Київ, Україна, 02000",
		"lat" : "50.3982355",
		"lng" : "30.5121791",
		"area" : "464,30 кв.м.",
		"type" : "площинні спортивні споруди",
		"district" : "Голосіївський",
		"fixed" : "Комунальне некомерційне підприємство «Консультативно-діагностичний центр» Голосіївського району міста Києва",
		"peopleDisabilities" : 0,
		"created_at" : "2022-01-07 21:34:18",
		"updated_at" : "2022-06-03 07:54:29"
	},
	{
		"id" : 161,
		"name" : "Приміщення КДЮСШ \"Тріумф\"",
		"address" : "вулиця Велика Васильківська, 53, Київ, Україна, 02000",
		"lat" : "50.4335913",
		"lng" : "30.5164974",
		"area" : "114,9 кв. м.",
		"type" : "спортивний комплекс",
		"district" : "Голосіївський",
		"fixed" : "КДЮСШ «Тріумф»",
		"peopleDisabilities" : 0,
		"created_at" : "2022-01-07 22:01:29",
		"updated_at" : "2022-06-03 07:55:04"
	},
	{
		"id" : 164,
		"name" : "Футбольне поле КДЮСШ № 15",
		"address" : "вулиця Маршала Якубовського, 7А, Київ, Україна, 03191",
		"lat" : "50.3811626",
		"lng" : "30.4511218",
		"area" : "Поле 100мХ60м, поле 60мХ40м, 3 майданчика в манежі 28мХ14м",
		"type" : "футбольні поля",
		"district" : "Голосіївський",
		"fixed" : "Комплексна дитячо-юнацька спортивна школа №15",
		"peopleDisabilities" : 0,
		"created_at" : "2022-01-08 10:13:13",
		"updated_at" : "2023-09-07 10:16:13"
	},
	{
		"id" : 165,
		"name" : "Приміщення для фізкультурно-оздоровчих занять",
		"address" : "проспект Академіка Глушкова, 9, Київ, Україна, 02000",
		"lat" : "50.3729225",
		"lng" : "30.4676478",
		"area" : "4094,1 кв.м.",
		"type" : "фізкультурно-оздоровчий комплекс",
		"district" : "Голосіївський",
		"fixed" : "ДП ЦУТБ \"Льодовий стадіон\"",
		"peopleDisabilities" : 1,
		"created_at" : "2022-01-08 10:14:10",
		"updated_at" : "2022-01-08 11:43:59"
	},
	{
		"id" : 167,
		"name" : "Спортивний центр \"Ліко\"",
		"address" : "вулиця Маршала Конєва, 8, Київ, Київська обл., Україна, 03189",
		"lat" : "50.3819335",
		"lng" : "30.45846",
		"area" : "0,4",
		"type" : "спортивний комплекс",
		"district" : "Голосіївський",
		"fixed" : "Спортивний центр \"Ліко\"",
		"peopleDisabilities" : 1,
		"created_at" : "2022-01-08 12:02:14",
		"updated_at" : "2022-01-08 12:02:29"
	},
	{
		"id" : 168,
		"name" : "Навчально-спортивна база \"Конча-Заспа\"",
		"address" : "Столичне шосе, 45, Київ, Україна, 02000",
		"lat" : "50.3214997",
		"lng" : "30.5691073",
		"area" : "8,6",
		"type" : "спортивний комплекс",
		"district" : "Голосіївський",
		"fixed" : "Міністерство молоді та спорту України",
		"peopleDisabilities" : 1,
		"created_at" : "2022-01-08 12:19:36",
		"updated_at" : "2022-01-08 12:19:36"
	},
	{
		"id" : 170,
		"name" : "Басейн спортивного комплексу Національного університету харчових технологій",
		"address" : "проспект Науки, 29, Київ, Україна, 02000",
		"lat" : "50.395991",
		"lng" : "30.5319535",
		"area" : "інформація відсутня",
		"type" : "басейн",
		"district" : "Голосіївський",
		"fixed" : "Спортивний комплекс Національного університету харчових технологій",
		"peopleDisabilities" : 0,
		"created_at" : "2022-01-08 12:24:05",
		"updated_at" : "2023-11-21 11:23:33"
	},
	{
		"id" : 171,
		"name" : "Спортивний майданчик",
		"address" : "вулиця Ракетна, 24, Київ, Україна, 02000",
		"lat" : "50.3854636",
		"lng" : "30.5433035",
		"area" : "інформація відсутня",
		"type" : "тенісні корти",
		"district" : "Голосіївський",
		"fixed" : "Державне підприємство «Спортивний лікувально-відновлювальний центр» ІЕЗ ім. Є. О. Патона НАН України\"",
		"peopleDisabilities" : 0,
		"created_at" : "2022-01-08 12:27:46",
		"updated_at" : "2022-01-08 12:27:46"
	},
	{
		"id" : 173,
		"name" : "Футбольне поле зі штучним покриттям",
		"address" : "вулиця Володимира Брожка, 17, Київ, Україна, 02000",
		"lat" : "50.4121187",
		"lng" : "30.5123374",
		"area" : "інформація відсутня",
		"type" : "футбольні поля",
		"district" : "Голосіївський",
		"fixed" : "Міжрегіональна Академія управління персоналом",
		"peopleDisabilities" : 0,
		"created_at" : "2022-01-08 12:30:07",
		"updated_at" : "2022-01-08 12:30:07"
	},
	{
		"id" : 174,
		"name" : "Волейбольний майданчик",
		"address" : "вулиця Маричанська, 4, Київ, Україна, 02000",
		"lat" : "50.3925701",
		"lng" : "30.5018558",
		"area" : "інформація відсутня",
		"type" : "волейбольний майданчик",
		"district" : "Голосіївський",
		"fixed" : "Державний навчальний заклад «Київське регіональне вище професійне училище будівництва»",
		"peopleDisabilities" : 0,
		"created_at" : "2022-01-08 12:31:12",
		"updated_at" : "2022-04-19 22:54:06"
	},
	{
		"id" : 176,
		"name" : "Майданчик для пляжного волейболу",
		"address" : "вулиця Набережно-Корчуватська, 35, Київ, Україна, 02000",
		"lat" : "50.3677898",
		"lng" : "30.5545368",
		"area" : "інформація відсутня",
		"type" : "волейбольний майданчик",
		"district" : "Голосіївський",
		"fixed" : "ТОВ РК «Галера»",
		"peopleDisabilities" : 0,
		"created_at" : "2022-01-08 13:10:04",
		"updated_at" : "2022-01-08 13:10:04"
	},
	{
		"id" : 177,
		"name" : "Спортивний майданчик для футболу",
		"address" : "проспект Науки, 45, Київ, Україна, 02000",
		"lat" : "50.3884705",
		"lng" : "30.5303645",
		"area" : "інформація відсутня",
		"type" : "футбольні поля",
		"district" : "Голосіївський",
		"fixed" : "ІФН ім. В.Є. Лашкарьова НАН Україним.",
		"peopleDisabilities" : 0,
		"created_at" : "2022-01-08 13:17:25",
		"updated_at" : "2022-01-08 13:17:25"
	},
	{
		"id" : 178,
		"name" : "Зал волейбольний",
		"address" : "проспект Науки, 29А, Київ, Україна, 02000",
		"lat" : "50.395517",
		"lng" : "30.533971",
		"area" : "інформація відсутня",
		"type" : "волейбольний майданчик",
		"district" : "Голосіївський",
		"fixed" : "Спортивний комплекс Національного університету харчових технологій",
		"peopleDisabilities" : 0,
		"created_at" : "2022-01-08 13:20:14",
		"updated_at" : "2022-01-08 13:20:45"
	},
	{
		"id" : 179,
		"name" : "Зал футбольний",
		"address" : "проспект Науки, 29А, Київ, Україна, 02000",
		"lat" : "50.395517",
		"lng" : "30.533971",
		"area" : "інформація відсутня",
		"type" : "футбольні поля",
		"district" : "Голосіївський",
		"fixed" : "Спортивний комплекс Національного університету харчових технологій",
		"peopleDisabilities" : 0,
		"created_at" : "2022-01-08 13:21:50",
		"updated_at" : "2022-01-08 13:21:50"
	},
	{
		"id" : 180,
		"name" : "Зал баскетбольний",
		"address" : "проспект Науки, 29А, Київ, Україна, 02000",
		"lat" : "50.395517",
		"lng" : "30.533971",
		"area" : "інформація відсутня",
		"type" : "баскетбольний майданчик",
		"district" : "Голосіївський",
		"fixed" : "Спортивний комплекс Національного університету харчових технологій",
		"peopleDisabilities" : 0,
		"created_at" : "2022-01-08 13:27:32",
		"updated_at" : "2022-01-08 13:27:32"
	},
	{
		"id" : 181,
		"name" : "Зал для гри в настільний теніс",
		"address" : "вулиця Алматинська, 60, Київ, Україна, 02000",
		"lat" : "50.4500131",
		"lng" : "30.6776091",
		"area" : "10,4 х16 кв.м.",
		"type" : "спортивний зал",
		"district" : "Дніпровський",
		"fixed" : "Управління освіти Дніпровської РДА",
		"peopleDisabilities" : 0,
		"created_at" : "2022-01-08 13:29:36",
		"updated_at" : "2023-09-06 14:27:12"
	},
	{
		"id" : 186,
		"name" : "Футбольне поле",
		"address" : "провулок Віто-Литовський, 98, Київ, Україна, 02000",
		"lat" : "50.3658239",
		"lng" : "30.5490471",
		"area" : "інформація відсутня",
		"type" : "футбольні поля",
		"district" : "Голосіївський",
		"fixed" : "Навчально-науковий центр професійно-технічної освіти Національної академії педагогічних наук України",
		"peopleDisabilities" : 0,
		"created_at" : "2022-01-08 13:51:50",
		"updated_at" : "2022-01-08 13:51:50"
	},
	{
		"id" : 188,
		"name" : "Футбольне поле зі штучним покриттям",
		"address" : "вулиця Володимира Брожка, 17, Київ, Україна, 02000",
		"lat" : "50.4121187",
		"lng" : "30.5123374",
		"area" : "інформація відсутня",
		"type" : "футбольні поля",
		"district" : "Голосіївський",
		"fixed" : "Міжрегіональна Академія управління персоналом",
		"peopleDisabilities" : 0,
		"created_at" : "2022-01-08 13:53:28",
		"updated_at" : "2022-01-08 13:53:28"
	},
	{
		"id" : 189,
		"name" : "Футбольне поле зі штучним покриттям",
		"address" : "вулиця Володимира Брожка, 17, Київ, Україна, 02000",
		"lat" : "50.4121187",
		"lng" : "30.5123374",
		"area" : "інформація відсутня",
		"type" : "футбольні поля",
		"district" : "Голосіївський",
		"fixed" : "Міжрегіональна Академія управління персоналом",
		"peopleDisabilities" : 0,
		"created_at" : "2022-01-08 13:54:07",
		"updated_at" : "2022-01-08 13:54:07"
	},
	{
		"id" : 190,
		"name" : "Футбольне поле зі штучним покриттям",
		"address" : "вулиця Володимира Брожка, 18, Київ, Україна, 02000",
		"lat" : "50.4121164",
		"lng" : "30.5123256",
		"area" : "інформація відсутня",
		"type" : "футбольні поля",
		"district" : "Голосіївський",
		"fixed" : "Міжрегіональна Академія управління персоналом",
		"peopleDisabilities" : 0,
		"created_at" : "2022-01-08 13:54:41",
		"updated_at" : "2022-01-08 13:54:41"
	},
	{
		"id" : 191,
		"name" : "Конкурне поле",
		"address" : "вул. Академіка Заболотного, 13, Київ, Україна, 02000",
		"lat" : "50.3674825",
		"lng" : "30.4620699",
		"area" : "інформація відсутня",
		"type" : "конкурне поле",
		"district" : "Голосіївський",
		"fixed" : "Кінно-спортивна база КМО ФСТ \"Динамо\"",
		"peopleDisabilities" : 0,
		"created_at" : "2022-01-08 13:56:13",
		"updated_at" : "2022-01-08 14:23:05"
	},
	{
		"id" : 193,
		"name" : "Футбольне поле зі штучним покриттям",
		"address" : "проспект Академіка Глушкова, 2, Київ, Україна, 02000",
		"lat" : "50.382214",
		"lng" : "30.4774255",
		"area" : "інформація відсутня",
		"type" : "футбольні поля",
		"district" : "Голосіївський",
		"fixed" : "Київський національний університет імені Тараса Шевченка",
		"peopleDisabilities" : 0,
		"created_at" : "2022-01-08 13:58:17",
		"updated_at" : "2022-01-08 13:58:17"
	},
	{
		"id" : 200,
		"name" : "Спортивний зал",
		"address" : "проспект Академіка Глушкова, 2, Київ, Україна, 02000",
		"lat" : "50.382214",
		"lng" : "30.4774255",
		"area" : "інформація відсутня",
		"type" : "спортивний зал",
		"district" : "Голосіївський",
		"fixed" : "Київський національний університет імені Тараса Шевченка",
		"peopleDisabilities" : 0,
		"created_at" : "2022-01-08 14:05:55",
		"updated_at" : "2022-01-08 14:22:18"
	},
	{
		"id" : 201,
		"name" : "Спортивний зал",
		"address" : "проспект Академіка Глушкова, 3, Київ, Україна, 02000",
		"lat" : "50.3780077",
		"lng" : "30.4705571",
		"area" : "інформація відсутня",
		"type" : "спортивний зал",
		"district" : "Голосіївський",
		"fixed" : "Київський національний університет імені Тараса Шевченка",
		"peopleDisabilities" : 0,
		"created_at" : "2022-01-08 14:06:57",
		"updated_at" : "2022-01-08 14:22:07"
	},
	{
		"id" : 202,
		"name" : "Футбольний майданчик",
		"address" : "вулиця Маричанська, 4, Київ, Україна, 02000",
		"lat" : "50.3925701",
		"lng" : "30.5018558",
		"area" : "інформація відсутня",
		"type" : "футбольні поля",
		"district" : "Голосіївський",
		"fixed" : "Державний навчальний заклад «Київське регіональне вище професійне училище будівництва»",
		"peopleDisabilities" : 0,
		"created_at" : "2022-01-08 14:07:47",
		"updated_at" : "2022-01-08 14:07:47"
	},
	{
		"id" : 244,
		"name" : "Футбольне поле",
		"address" : "вулиця Михайла Драгоманова, 5, Київ, Україна, 02000",
		"lat" : "50.4157071",
		"lng" : "30.6394722",
		"area" : "0,048",
		"type" : "футбольні поля",
		"district" : "Дарницький",
		"fixed" : "КП «Керуюча компанія по обслуговуванню житлового фонду Дарницького району м. Києва»",
		"peopleDisabilities" : 1,
		"created_at" : "2022-01-08 16:20:51",
		"updated_at" : "2022-01-08 16:20:51"
	},
	{
		"id" : 255,
		"name" : "Футбольне поле з штучним покриттям",
		"address" : "Харківське шосе, 154А, Київ, Україна, 02000",
		"lat" : "50.417361",
		"lng" : "30.654909",
		"area" : "0,054",
		"type" : "футбольні поля",
		"district" : "Дарницький",
		"fixed" : "КП «Керуюча компанія по обслуговуванню житлового фонду Дарницького району м. Києва»",
		"peopleDisabilities" : 1,
		"created_at" : "2022-01-08 18:02:25",
		"updated_at" : "2022-01-08 18:05:25"
	},
	{
		"id" : 256,
		"name" : "Футбольне поле з штучним покриттям",
		"address" : "Харківське шосе, 168А, Київ, Україна, 02000",
		"lat" : "50.413405",
		"lng" : "30.65988",
		"area" : "0,039",
		"type" : "футбольні поля",
		"district" : "Дарницький",
		"fixed" : null,
		"peopleDisabilities" : 1,
		"created_at" : "2022-01-08 18:06:19",
		"updated_at" : "2022-01-08 18:06:25"
	},
	{
		"id" : 257,
		"name" : "Футбольне поле з штучним покриттям",
		"address" : "Харківське шосе, 168Е, Київ, Україна, 02000",
		"lat" : "50.412825",
		"lng" : "30.656136",
		"area" : "0,039",
		"type" : "футбольні поля",
		"district" : "Дарницький",
		"fixed" : "КП «Керуюча компанія по обслуговуванню житлового фонду Дарницького району м. Києва»",
		"peopleDisabilities" : 1,
		"created_at" : "2022-01-08 18:07:08",
		"updated_at" : "2022-01-08 18:07:33"
	},
	{
		"id" : 258,
		"name" : "Футбольне поле з штучним покриттям",
		"address" : "вулиця Тростянецька, 6Ж, Київ, Україна, 02000",
		"lat" : "50.414262",
		"lng" : "30.653702",
		"area" : "0,0416",
		"type" : "футбольні поля",
		"district" : "Дарницький",
		"fixed" : "КП «Керуюча компанія по обслуговуванню житлового фонду Дарницького району м. Києва»",
		"peopleDisabilities" : 1,
		"created_at" : "2022-01-08 18:08:36",
		"updated_at" : "2022-01-08 18:08:36"
	},
	{
		"id" : 260,
		"name" : "Футбольне поле з штучним покриттям",
		"address" : "вулиця Архітектора Вербицького, 4А, Київ, Україна, 02000",
		"lat" : "50.412379",
		"lng" : "30.648073",
		"area" : "0,0416",
		"type" : "футбольні поля",
		"district" : "Дарницький",
		"fixed" : "КП «Керуюча компанія по обслуговуванню житлового фонду Дарницького району м. Києва»",
		"peopleDisabilities" : 1,
		"created_at" : "2022-01-08 18:12:22",
		"updated_at" : "2022-01-08 18:12:22"
	},
	{
		"id" : 275,
		"name" : "Спортивний майданчик типу «StreetWorkout», прибудинковий на вул. Тростянецькій, 6",
		"address" : "вулиця Тростянецька, 6, Київ, Україна, 02000",
		"lat" : "50.4151931",
		"lng" : "30.6516439",
		"area" : "0,0025",
		"type" : "майданчик з тренажерним обладнанням",
		"district" : "Дарницький",
		"fixed" : "КП «Керуюча компанія по обслуговуванню житлового фонду Дарницького району м. Києва»",
		"peopleDisabilities" : 1,
		"created_at" : "2022-01-08 18:37:44",
		"updated_at" : "2023-11-27 15:42:43"
	},
	{
		"id" : 276,
		"name" : "Спортивний майданчик типу «StreetWorkout», прибудинковий на вул. Тростянецькій, 8",
		"address" : "вулиця Тростянецька, 8, Київ, Україна, 02000",
		"lat" : "50.4170072",
		"lng" : "30.652754",
		"area" : "0,0024",
		"type" : "майданчик з тренажерним обладнанням",
		"district" : "Дарницький",
		"fixed" : "КП «Керуюча компанія по обслуговуванню житлового фонду Дарницького району м. Києва»",
		"peopleDisabilities" : 1,
		"created_at" : "2022-01-08 18:38:18",
		"updated_at" : "2023-11-27 15:43:30"
	},
	{
		"id" : 277,
		"name" : "Спортивний майданчик типу «StreetWorkout», прибудинковий на вул. Тростянецькій, 8Б",
		"address" : "вулиця Тростянецька, 8Б, Київ, Україна, 02000",
		"lat" : "50.416089",
		"lng" : "30.65552",
		"area" : "0,0008",
		"type" : "майданчик з тренажерним обладнанням",
		"district" : "Дарницький",
		"fixed" : "КП «Керуюча компанія по обслуговуванню житлового фонду Дарницького району м. Києва»",
		"peopleDisabilities" : 1,
		"created_at" : "2022-01-08 18:39:01",
		"updated_at" : "2023-11-27 15:44:19"
	},
	{
		"id" : 279,
		"name" : "Футбольне поле",
		"address" : "Харківське шосе, 180\/21, Київ, Україна, 02000",
		"lat" : "50.4101804",
		"lng" : "30.6679446",
		"area" : "0,08",
		"type" : "футбольні поля",
		"district" : "Дарницький",
		"fixed" : "КП «Керуюча компанія по обслуговуванню житлового фонду Дарницького району м. Києва»",
		"peopleDisabilities" : 1,
		"created_at" : "2022-01-08 18:42:44",
		"updated_at" : "2022-01-08 18:42:44"
	},
	{
		"id" : 280,
		"name" : "Футбольне поле",
		"address" : "вулиця Декабристів, 9А, Київ, Україна, 02000",
		"lat" : "50.404279",
		"lng" : "30.65612",
		"area" : "0,058",
		"type" : "футбольні поля",
		"district" : "Дарницький",
		"fixed" : "КП «Керуюча компанія по обслуговуванню житлового фонду Дарницького району м. Києва»",
		"peopleDisabilities" : 1,
		"created_at" : "2022-01-08 18:45:42",
		"updated_at" : "2022-01-08 18:45:42"
	},
	{
		"id" : 283,
		"name" : "Футбольне поле",
		"address" : "вулиця Архітектора Вербицького, 22\/1, Київ, Україна, 02000",
		"lat" : "50.4068054",
		"lng" : "30.6582055",
		"area" : "0,036",
		"type" : "футбольні поля",
		"district" : "Дарницький",
		"fixed" : "КП «Керуюча компанія по обслуговуванню житлового фонду Дарницького району м. Києва»",
		"peopleDisabilities" : 1,
		"created_at" : "2022-01-08 18:48:06",
		"updated_at" : "2022-01-08 18:48:06"
	},
	{
		"id" : 284,
		"name" : "Футбольне поле",
		"address" : "вулиця Архітектора Вербицького, 34, Київ, Україна, 02000",
		"lat" : "50.4077046",
		"lng" : "30.6678842",
		"area" : "0,042",
		"type" : "футбольні поля",
		"district" : "Дарницький",
		"fixed" : "КП «Керуюча компанія по обслуговуванню житлового фонду Дарницького району м. Києва»",
		"peopleDisabilities" : 0,
		"created_at" : "2022-01-08 18:49:28",
		"updated_at" : "2022-01-08 18:49:37"
	},
	{
		"id" : 285,
		"name" : "Футбольне поле",
		"address" : "вулиця Вірменська, 1, Київ, Україна, 02000",
		"lat" : "50.4044689",
		"lng" : "30.6666763",
		"area" : "0,015",
		"type" : "футбольні поля",
		"district" : "Дарницький",
		"fixed" : "КП «Керуюча компанія по обслуговуванню житлового фонду Дарницького району м. Києва»",
		"peopleDisabilities" : 1,
		"created_at" : "2022-01-08 18:50:40",
		"updated_at" : "2022-01-08 18:50:53"
	},
	{
		"id" : 286,
		"name" : "Спортивний майданчик (баскетбольний), прибудинковий на просп. Миколи Бажана, 7",
		"address" : "проспект Миколи Бажана, 7, Київ, Україна, 02000",
		"lat" : "50.4031545",
		"lng" : "30.6601947",
		"area" : "0,015",
		"type" : "баскетбольний майданчик",
		"district" : "Дарницький",
		"fixed" : "КП «Керуюча компанія по обслуговуванню житлового фонду Дарницького району м. Києва»",
		"peopleDisabilities" : 1,
		"created_at" : "2022-01-08 18:52:16",
		"updated_at" : "2023-12-01 11:40:15"
	},
	{
		"id" : 287,
		"name" : "Спортивний майданчик типу «StreetWorkout», прибудинковий на просп. Миколи Бажана, 5В",
		"address" : "проспект Миколи Бажана, 5В, Київ, Україна, 02000",
		"lat" : "50.4035",
		"lng" : "30.658822",
		"area" : "0,001",
		"type" : "майданчик з тренажерним обладнанням",
		"district" : "Дарницький",
		"fixed" : "КП «Керуюча компанія по обслуговуванню житлового фонду Дарницького району м. Києва»",
		"peopleDisabilities" : 1,
		"created_at" : "2022-01-08 18:53:29",
		"updated_at" : "2023-11-27 15:45:47"
	},
	{
		"id" : 288,
		"name" : "Спортивний майданчик типу «StreetWorkout», прибудинковий на просп. Миколи Бажана, 5Е",
		"address" : "проспект Миколи Бажана, 5Е, Київ, Україна, 02000",
		"lat" : "50.402805",
		"lng" : "30.65871",
		"area" : "0,001",
		"type" : "майданчик з тренажерним обладнанням",
		"district" : "Дарницький",
		"fixed" : "КП «Керуюча компанія по обслуговуванню житлового фонду Дарницького району м. Києва»",
		"peopleDisabilities" : 1,
		"created_at" : "2022-01-08 18:54:24",
		"updated_at" : "2023-11-27 15:46:39"
	},
	{
		"id" : 289,
		"name" : "Спортивний майданчик типу «StreetWorkout», прибудинковий на вул. Миколи Бажана, 7А",
		"address" : "проспект Миколи Бажана, 7А, Київ, Україна, 02000",
		"lat" : "50.4041817",
		"lng" : "30.65789",
		"area" : "0,001",
		"type" : "майданчик з тренажерним обладнанням",
		"district" : "Дарницький",
		"fixed" : "КП «Керуюча компанія по обслуговуванню житлового фонду Дарницького району м. Києва»",
		"peopleDisabilities" : 1,
		"created_at" : "2022-01-08 18:56:15",
		"updated_at" : "2023-11-27 15:47:33"
	},
	{
		"id" : 290,
		"name" : "Спортивний майданчик типу «StreetWorkout», прибудинковий на просп. Миколи Бажана, 7Б",
		"address" : "проспект Миколи Бажана, 7Б, Київ, Україна, 02000",
		"lat" : "50.404152",
		"lng" : "30.659199",
		"area" : "0,001",
		"type" : "майданчик з тренажерним обладнанням",
		"district" : "Дарницький",
		"fixed" : "КП «Керуюча компанія по обслуговуванню житлового фонду Дарницького району м. Києва»",
		"peopleDisabilities" : 1,
		"created_at" : "2022-01-08 18:56:24",
		"updated_at" : "2023-11-27 16:02:46"
	},
	{
		"id" : 291,
		"name" : "Спортивний майданчик типу «StreetWorkout», прибудинковий на просп. Миколи Бажана, 7",
		"address" : "проспект Миколи Бажана, 7, Київ, Україна, 02000",
		"lat" : "50.4031545",
		"lng" : "30.6601947",
		"area" : "0,001",
		"type" : "майданчик з тренажерним обладнанням",
		"district" : "Дарницький",
		"fixed" : "КП «Керуюча компанія по обслуговуванню житлового фонду Дарницького району м. Києва»",
		"peopleDisabilities" : 1,
		"created_at" : "2022-01-08 18:57:55",
		"updated_at" : "2023-11-27 16:03:33"
	},
	{
		"id" : 293,
		"name" : "Спортивний майданчик типу «StreetWorkout», прибудинковий на просп. Миколи Бажана, 9А",
		"address" : "проспект Миколи Бажана, 9А, Київ, Україна, 02000",
		"lat" : "50.404644",
		"lng" : "30.66514",
		"area" : "0,001",
		"type" : "майданчик з тренажерним обладнанням",
		"district" : "Дарницький",
		"fixed" : "КП «Керуюча компанія по обслуговуванню житлового фонду Дарницького району м. Києва»",
		"peopleDisabilities" : 1,
		"created_at" : "2022-01-08 18:59:23",
		"updated_at" : "2023-11-27 16:04:47"
	},
	{
		"id" : 294,
		"name" : "Спортивний майданчик типу «StreetWorkout», прибудинковий на вул. Миколи Бажана, 9Б",
		"address" : "проспект Миколи Бажана, 9Б, Київ, Україна, 02000",
		"lat" : "50.4047504",
		"lng" : "30.6631229",
		"area" : "0,001",
		"type" : "майданчик з тренажерним обладнанням",
		"district" : "Дарницький",
		"fixed" : "КП «Керуюча компанія по обслуговуванню житлового фонду Дарницького району м. Києва»",
		"peopleDisabilities" : 1,
		"created_at" : "2022-01-08 18:59:27",
		"updated_at" : "2023-11-27 16:33:24"
	},
	{
		"id" : 313,
		"name" : "Спортивний майданчик типу «StreetWorkout», прибудинковий на вул. Михайла Драгоманова, 42",
		"address" : "вулиця Михайла Драгоманова, 42, Київ, Україна, 02000",
		"lat" : "50.4041157",
		"lng" : "30.6367015",
		"area" : "0,0084",
		"type" : "майданчик з тренажерним обладнанням",
		"district" : "Дарницький",
		"fixed" : "КП «Керуюча компанія по обслуговуванню житлового фонду Дарницького району м. Києва»",
		"peopleDisabilities" : 1,
		"created_at" : "2022-01-08 19:16:06",
		"updated_at" : "2023-11-27 14:58:35"
	},
	{
		"id" : 316,
		"name" : "Спортивний майданчик типу «StreetWorkout», прибудинковий на вул. Степана Олійника, 13",
		"address" : "вулиця Степана Олійника, 13, Київ, Україна, 02000",
		"lat" : "50.4078439",
		"lng" : "30.6435476",
		"area" : "0,0084",
		"type" : "майданчик з тренажерним обладнанням",
		"district" : "Дарницький",
		"fixed" : "КП «Керуюча компанія по обслуговуванню житлового фонду Дарницького району м. Києва»",
		"peopleDisabilities" : 1,
		"created_at" : "2022-01-08 19:17:51",
		"updated_at" : "2023-11-27 15:04:46"
	},
	{
		"id" : 317,
		"name" : "Спортивний майданчик типу «StreetWorkout», прибудинковий на вул. Михайла Драгоманова, 25",
		"address" : "вулиця Михайла Драгоманова, 25, Київ, Україна, 02000",
		"lat" : "50.4040893",
		"lng" : "30.6377866",
		"area" : "0,0084",
		"type" : "майданчик з тренажерним обладнанням",
		"district" : "Дарницький",
		"fixed" : "КП «Керуюча компанія по обслуговуванню житлового фонду Дарницького району м. Києва»",
		"peopleDisabilities" : 1,
		"created_at" : "2022-01-08 19:19:12",
		"updated_at" : "2023-11-27 15:05:57"
	},
	{
		"id" : 318,
		"name" : "Спортивний майданчик типу «StreetWorkout», прибудинковий на вул. Михайла Драгоманова, 27",
		"address" : "вулиця Михайла Драгоманова, 27, Київ, Україна, 02000",
		"lat" : "50.4027329",
		"lng" : "30.6370559",
		"area" : "0,0084",
		"type" : "майданчик з тренажерним обладнанням",
		"district" : "Дарницький",
		"fixed" : "КП «Керуюча компанія по обслуговуванню житлового фонду Дарницького району м. Києва»",
		"peopleDisabilities" : 1,
		"created_at" : "2022-01-08 19:19:16",
		"updated_at" : "2023-11-27 15:06:52"
	},
	{
		"id" : 319,
		"name" : "Спортивний майданчик типу «StreetWorkout», прибудинковий на вул. Михайла Драгоманова, 20",
		"address" : "вулиця Михайла Драгоманова, 20, Київ, Україна, 02000",
		"lat" : "50.409313",
		"lng" : "30.6379623",
		"area" : "0,0084",
		"type" : "майданчик з тренажерним обладнанням",
		"district" : "Дарницький",
		"fixed" : "КП «Керуюча компанія по обслуговуванню житлового фонду Дарницького району м. Києва»",
		"peopleDisabilities" : 1,
		"created_at" : "2022-01-08 19:20:36",
		"updated_at" : "2023-11-27 15:07:32"
	},
	{
		"id" : 322,
		"name" : "Тенісний корт",
		"address" : "вулиця Олександра Кошиця, 7, Київ, Україна, 02000",
		"lat" : "50.4054327",
		"lng" : "30.644491",
		"area" : "0,0108",
		"type" : "тенісні корти",
		"district" : "Дарницький",
		"fixed" : "КП «Керуюча компанія по обслуговуванню житлового фонду Дарницького району м. Києва»",
		"peopleDisabilities" : 1,
		"created_at" : "2022-01-08 19:22:33",
		"updated_at" : "2022-01-08 19:22:38"
	},
	{
		"id" : 323,
		"name" : "Футбольне поле",
		"address" : "вулиця Михайла Драгоманова, 44А, Київ, Україна, 02000",
		"lat" : "50.4018743",
		"lng" : "30.6344609",
		"area" : "0,054",
		"type" : "футбольні поля",
		"district" : "Дарницький",
		"fixed" : "КП «Керуюча компанія по обслуговуванню житлового фонду Дарницького району м. Києва»",
		"peopleDisabilities" : 1,
		"created_at" : "2022-01-08 19:23:25",
		"updated_at" : "2022-01-08 19:23:25"
	},
	{
		"id" : 324,
		"name" : "Футбольне поле",
		"address" : "вулиця Олександра Кошиця, 4, Київ, Україна, 02000",
		"lat" : "50.4056276",
		"lng" : "30.646575",
		"area" : "0,054",
		"type" : "футбольні поля",
		"district" : "Дарницький",
		"fixed" : "КП «Керуюча компанія по обслуговуванню житлового фонду Дарницького району м. Києва»",
		"peopleDisabilities" : 1,
		"created_at" : "2022-01-08 19:24:11",
		"updated_at" : "2022-01-08 19:24:11"
	},
	{
		"id" : 325,
		"name" : "Футбольне поле",
		"address" : "вулиця Княжий Затон, 12, Київ, Україна, 02000",
		"lat" : "50.4020776",
		"lng" : "30.6179959",
		"area" : "0,03",
		"type" : "футбольні поля",
		"district" : "Дарницький",
		"fixed" : "КП «Керуюча компанія по обслуговуванню житлового фонду Дарницького району м. Києва»",
		"peopleDisabilities" : 1,
		"created_at" : "2022-01-08 19:24:57",
		"updated_at" : "2022-01-08 19:24:57"
	},
	{
		"id" : 327,
		"name" : "Футбольне поле",
		"address" : "вулиця Урлівська, 15, Київ, Україна, 02000",
		"lat" : "50.4088039",
		"lng" : "30.6175927",
		"area" : "0,03",
		"type" : "футбольні поля",
		"district" : "Дарницький",
		"fixed" : "КП «Керуюча компанія по обслуговуванню житлового фонду Дарницького району м. Києва»",
		"peopleDisabilities" : 1,
		"created_at" : "2022-01-08 19:26:36",
		"updated_at" : "2022-01-08 19:26:36"
	},
	{
		"id" : 329,
		"name" : "Футбольне поле",
		"address" : "вулиця Сортувальна, 2, Київ, Україна, 02000",
		"lat" : "50.4182262",
		"lng" : "30.6063046",
		"area" : "0,08",
		"type" : "футбольні поля",
		"district" : "Дарницький",
		"fixed" : "КП «Керуюча компанія по обслуговуванню житлового фонду Дарницького району м. Києва»",
		"peopleDisabilities" : 1,
		"created_at" : "2022-01-08 19:29:12",
		"updated_at" : "2022-01-08 19:29:12"
	},
	{
		"id" : 339,
		"name" : "Спортивний майданчик (баскетбольний), прибудинковий на просп. Петра Григоренка, 41",
		"address" : "проспект Петра Григоренка, 41, Київ, Україна, 02000",
		"lat" : "50.3933384",
		"lng" : "30.6373368",
		"area" : "0,105",
		"type" : "баскетбольний майданчик",
		"district" : "Дарницький",
		"fixed" : "КП «Керуюча компанія по обслуговуванню житлового фонду Дарницького району м. Києва»",
		"peopleDisabilities" : 1,
		"created_at" : "2022-01-08 19:37:29",
		"updated_at" : "2023-12-01 11:42:07"
	},
	{
		"id" : 340,
		"name" : "футбольне поле",
		"address" : "вулиця Івана Дяченка, 6, Київ, Україна, 02000",
		"lat" : "50.3866592",
		"lng" : "30.696105",
		"area" : "0,051",
		"type" : "футбольні поля",
		"district" : "Дарницький",
		"fixed" : "КП «Керуюча компанія по обслуговуванню житлового фонду Дарницького району м. Києва»",
		"peopleDisabilities" : 1,
		"created_at" : "2022-01-08 19:38:12",
		"updated_at" : "2022-01-08 19:38:12"
	},
	{
		"id" : 351,
		"name" : "Спортивний майданчик типу «StreetWorkout», прибудинковий на вул. Вересна, 24А",
		"address" : "вулиця Вереснева, 24А, Київ, Україна, 02000",
		"lat" : "50.424581",
		"lng" : "30.663786",
		"area" : "0,003",
		"type" : "майданчик з тренажерним обладнанням",
		"district" : "Дарницький",
		"fixed" : "КП «Керуюча компанія по обслуговуванню житлового фонду Дарницького району м. Києва»",
		"peopleDisabilities" : 1,
		"created_at" : "2022-01-08 19:47:31",
		"updated_at" : "2023-11-27 15:41:59"
	},
	{
		"id" : 352,
		"name" : "Спортивний майданчик типу «StreetWorkout», прибудинковий на провул. Ігоря Качуровського, 1А",
		"address" : "провулок Ігоря Качуровського, 1А, Київ, Україна, 02000",
		"lat" : "50.42659",
		"lng" : "30.670623",
		"area" : "0,003",
		"type" : "майданчик з тренажерним обладнанням",
		"district" : "Дарницький",
		"fixed" : "КП «Керуюча компанія по обслуговуванню житлового фонду Дарницького району м. Києва»",
		"peopleDisabilities" : 1,
		"created_at" : "2022-01-08 19:51:31",
		"updated_at" : "2023-11-27 15:10:02"
	},
	{
		"id" : 364,
		"name" : "Футбольний майданчик",
		"address" : "вулиця Севастопольська, 19, Київ, Україна, 02000",
		"lat" : "50.4236312",
		"lng" : "30.6602867",
		"area" : "0,0804",
		"type" : "футбольні поля",
		"district" : "Дарницький",
		"fixed" : "КП «Керуюча компанія по обслуговуванню житлового фонду Дарницького району м. Києва»",
		"peopleDisabilities" : 1,
		"created_at" : "2022-01-09 11:29:38",
		"updated_at" : "2022-01-09 11:29:38"
	},
	{
		"id" : 365,
		"name" : "Футбольний майданчик",
		"address" : "вулиця Тростянецька, 12, Київ, Україна, 02000",
		"lat" : "50.420432",
		"lng" : "30.6581209",
		"area" : "0,416",
		"type" : "футбольні поля",
		"district" : "Дарницький",
		"fixed" : "КП «Керуюча компанія по обслуговуванню житлового фонду Дарницького району м. Києва»",
		"peopleDisabilities" : 1,
		"created_at" : "2022-01-09 11:31:58",
		"updated_at" : "2022-01-09 11:31:58"
	},
	{
		"id" : 368,
		"name" : "Футбольний майданчик",
		"address" : "Харківське шосе, 51, Київ, Україна, 02000",
		"lat" : "50.4219202",
		"lng" : "30.6517076",
		"area" : "0,318",
		"type" : "футбольні поля",
		"district" : "Дарницький",
		"fixed" : "КП «Керуюча компанія по обслуговуванню житлового фонду Дарницького району м. Києва»",
		"peopleDisabilities" : 1,
		"created_at" : "2022-01-09 11:34:26",
		"updated_at" : "2022-01-09 11:34:26"
	},
	{
		"id" : 370,
		"name" : "Футбольний майданчик",
		"address" : "Харківське шосе, 65, Київ, Україна, 02000",
		"lat" : "50.4171361",
		"lng" : "30.6595769",
		"area" : "0,398",
		"type" : "футбольні поля",
		"district" : "Дарницький",
		"fixed" : "КП «Керуюча компанія по обслуговуванню житлового фонду Дарницького району м. Києва»",
		"peopleDisabilities" : 1,
		"created_at" : "2022-01-09 11:37:22",
		"updated_at" : "2022-01-09 11:37:22"
	},
	{
		"id" : 380,
		"name" : "Футбольний майданчик",
		"address" : "вулиця Ялтинська, 8\/1, Київ, Україна, 02000",
		"lat" : "50.4291687",
		"lng" : "30.6514359",
		"area" : "0,564",
		"type" : "футбольні поля",
		"district" : "Дарницький",
		"fixed" : "КП «Керуюча компанія по обслуговуванню житлового фонду Дарницького району м. Києва»",
		"peopleDisabilities" : 1,
		"created_at" : "2022-01-09 11:45:32",
		"updated_at" : "2022-01-09 11:45:32"
	},
	{
		"id" : 381,
		"name" : "Футбольний майданчик",
		"address" : "вулиця Юрія Пасхаліна, 7а, Київ, Україна, 02094",
		"lat" : "50.4288161",
		"lng" : "30.6500769",
		"area" : "0,564",
		"type" : "футбольні поля",
		"district" : "Дарницький",
		"fixed" : "КП «Керуюча компанія по обслуговуванню житлового фонду Дарницького району м. Києва»",
		"peopleDisabilities" : 1,
		"created_at" : "2022-01-10 10:26:53",
		"updated_at" : "2022-01-10 10:26:53"
	},
	{
		"id" : 388,
		"name" : "Workout",
		"address" : "вулиця Костянтина Заслонова, 7, Київ, Україна, 02000",
		"lat" : "50.4269486",
		"lng" : "30.6510309",
		"area" : "0,072",
		"type" : "майданчик з тренажерним обладнанням",
		"district" : "Дарницький",
		"fixed" : "КП «Керуюча компанія по обслуговуванню житлового фонду Дарницького району м. Києва»",
		"peopleDisabilities" : 1,
		"created_at" : "2022-01-10 11:41:28",
		"updated_at" : "2022-01-10 11:41:28"
	},
	{
		"id" : 389,
		"name" : "Футбольний майданчик",
		"address" : "вулиця Костянтина Заслонова, 7, Київ, Україна, 02000",
		"lat" : "50.4269486",
		"lng" : "30.6510309",
		"area" : "0,33",
		"type" : "футбольні поля",
		"district" : "Дарницький",
		"fixed" : "КП «Керуюча компанія по обслуговуванню житлового фонду Дарницького району м. Києва»",
		"peopleDisabilities" : 1,
		"created_at" : "2022-01-10 11:43:06",
		"updated_at" : "2022-01-10 11:43:06"
	},
	{
		"id" : 390,
		"name" : "Workout",
		"address" : "вулиця Юрія Пасхаліна, 16, Київ, Україна, 02000",
		"lat" : "50.4253226",
		"lng" : "30.6508801",
		"area" : "0,03",
		"type" : "майданчик з тренажерним обладнанням",
		"district" : "Дарницький",
		"fixed" : "КП «Керуюча компанія по обслуговуванню житлового фонду Дарницького району м. Києва»",
		"peopleDisabilities" : 1,
		"created_at" : "2022-01-10 11:44:16",
		"updated_at" : "2022-01-10 11:44:16"
	},
	{
		"id" : 391,
		"name" : "Workout",
		"address" : "вулиця Новодарницька, 13, Київ, Україна, 02000",
		"lat" : "50.4259095",
		"lng" : "30.6541999",
		"area" : "0,064",
		"type" : "майданчик з тренажерним обладнанням",
		"district" : "Дарницький",
		"fixed" : "КП «Керуюча компанія по обслуговуванню житлового фонду Дарницького району м. Києва»",
		"peopleDisabilities" : 1,
		"created_at" : "2022-01-10 11:45:19",
		"updated_at" : "2022-01-10 11:45:19"
	},
	{
		"id" : 393,
		"name" : "Футбольний майданчик",
		"address" : "вулиця Новодарницька, 11, Київ, Україна, 02000",
		"lat" : "50.4256913",
		"lng" : "30.652597",
		"area" : "0,27",
		"type" : "футбольні поля",
		"district" : "Дарницький",
		"fixed" : "КП «Керуюча компанія по обслуговуванню житлового фонду Дарницького району м. Києва»",
		"peopleDisabilities" : 1,
		"created_at" : "2022-01-10 11:47:07",
		"updated_at" : "2022-01-10 11:47:07"
	},
	{
		"id" : 394,
		"name" : "Футбольне поле",
		"address" : "Харківське шосе, 21\/1, Київ, Україна, 02000",
		"lat" : "50.4255094",
		"lng" : "30.6422028",
		"area" : "0,022",
		"type" : "футбольні поля",
		"district" : "Дарницький",
		"fixed" : "КП «Керуюча компанія по обслуговуванню житлового фонду Дарницького району м. Києва»",
		"peopleDisabilities" : 1,
		"created_at" : "2022-01-10 11:47:48",
		"updated_at" : "2022-01-10 11:47:48"
	},
	{
		"id" : 395,
		"name" : "Workout",
		"address" : "Харківське шосе, 21\/6, Київ, Україна, 02000",
		"lat" : "50.4246127",
		"lng" : "30.6455914",
		"area" : "0,0036",
		"type" : "майданчик з тренажерним обладнанням",
		"district" : "Дарницький",
		"fixed" : "КП «Керуюча компанія по обслуговуванню житлового фонду Дарницького району м. Києва»",
		"peopleDisabilities" : 1,
		"created_at" : "2022-01-10 13:12:58",
		"updated_at" : "2022-01-10 13:12:58"
	},
	{
		"id" : 396,
		"name" : "Футбольне поле",
		"address" : "Харківське шосе, 21\/6, Київ, Україна, 02000",
		"lat" : "50.4246127",
		"lng" : "30.6455914",
		"area" : "0,1386",
		"type" : "футбольні поля",
		"district" : "Дарницький",
		"fixed" : "КП «Керуюча компанія по обслуговуванню житлового фонду Дарницького району м. Києва»",
		"peopleDisabilities" : 1,
		"created_at" : "2022-01-10 13:14:00",
		"updated_at" : "2022-01-10 13:14:00"
	},
	{
		"id" : 397,
		"name" : "Workout",
		"address" : "вулиця Новодарницька, 27А, Київ, Україна, 02000",
		"lat" : "50.4285423",
		"lng" : "30.6622103",
		"area" : "0,01",
		"type" : "майданчик з тренажерним обладнанням",
		"district" : "Дарницький",
		"fixed" : "КП «Керуюча компанія по обслуговуванню житлового фонду Дарницького району м. Києва»",
		"peopleDisabilities" : 1,
		"created_at" : "2022-01-10 13:15:40",
		"updated_at" : "2022-01-10 13:15:40"
	},
	{
		"id" : 399,
		"name" : "Workout",
		"address" : "вулиця Бориспільська, 3\/3А, Київ, Україна, 02000",
		"lat" : "50.432393",
		"lng" : "30.655285",
		"area" : "0,0036",
		"type" : "майданчик з тренажерним обладнанням",
		"district" : "Дарницький",
		"fixed" : "КП «Керуюча компанія по обслуговуванню житлового фонду Дарницького району м. Києва»",
		"peopleDisabilities" : 1,
		"created_at" : "2022-01-10 13:27:00",
		"updated_at" : "2022-01-10 13:27:00"
	},
	{
		"id" : 400,
		"name" : "Workout",
		"address" : "вулиця Новодарницька, 15\/1А, Київ, Україна, 02000",
		"lat" : "50.426951",
		"lng" : "30.656637",
		"area" : "0,0036",
		"type" : "майданчик з тренажерним обладнанням",
		"district" : "Дарницький",
		"fixed" : "КП «Керуюча компанія по обслуговуванню житлового фонду Дарницького району м. Києва»",
		"peopleDisabilities" : 1,
		"created_at" : "2022-01-10 13:28:32",
		"updated_at" : "2022-01-10 13:28:32"
	},
	{
		"id" : 401,
		"name" : "Workout",
		"address" : "вулиця Бориспільська, 38, Київ, Україна, 02000",
		"lat" : "50.4226297",
		"lng" : "30.6882653",
		"area" : "0,0143",
		"type" : "майданчик з тренажерним обладнанням",
		"district" : "Дарницький",
		"fixed" : "КП «Керуюча компанія по обслуговуванню житлового фонду Дарницького району м. Києва»",
		"peopleDisabilities" : 1,
		"created_at" : "2022-01-10 13:29:09",
		"updated_at" : "2022-01-10 13:29:09"
	},
	{
		"id" : 402,
		"name" : "Workout",
		"address" : "вулиця Поліська, 20, Київ, Україна, 02000",
		"lat" : "50.4206791",
		"lng" : "30.6854067",
		"area" : "0,007",
		"type" : "майданчик з тренажерним обладнанням",
		"district" : "Дарницький",
		"fixed" : "КП «Керуюча компанія по обслуговуванню житлового фонду Дарницького району м. Києва»",
		"peopleDisabilities" : 1,
		"created_at" : "2022-01-10 13:31:28",
		"updated_at" : "2022-01-10 13:31:28"
	},
	{
		"id" : 403,
		"name" : "Стадіон «Добро»",
		"address" : "вулиця Бориспільська, 30, Київ, Україна, 02000",
		"lat" : "50.425344",
		"lng" : "30.6807081",
		"area" : "0,9624",
		"type" : "стадіон",
		"district" : "Дарницький",
		"fixed" : "КП «Керуюча компанія по обслуговуванню житлового фонду Дарницького району м. Києва»",
		"peopleDisabilities" : 1,
		"created_at" : "2022-01-10 13:33:09",
		"updated_at" : "2022-01-10 13:33:09"
	},
	{
		"id" : 404,
		"name" : "Спортивний майданчик",
		"address" : "вулиця Бориспільська, 3\/1, Київ, Україна, 02000",
		"lat" : "50.4321605",
		"lng" : "30.6545456",
		"area" : "0,0156",
		"type" : "майданчик з тренажерним обладнанням",
		"district" : "Дарницький",
		"fixed" : "КП «Керуюча компанія по обслуговуванню житлового фонду Дарницького району м. Києва»",
		"peopleDisabilities" : 1,
		"created_at" : "2022-01-10 13:40:12",
		"updated_at" : "2022-01-10 13:40:12"
	},
	{
		"id" : 405,
		"name" : "Workout",
		"address" : "вулиця Сімферопольська, 11\/1, Київ, Україна, 02000",
		"lat" : "50.4252269",
		"lng" : "30.6487605",
		"area" : "0,003",
		"type" : "майданчик з тренажерним обладнанням",
		"district" : "Дарницький",
		"fixed" : "КП «Керуюча компанія по обслуговуванню житлового фонду Дарницького району м. Києва»",
		"peopleDisabilities" : 1,
		"created_at" : "2022-01-10 13:42:30",
		"updated_at" : "2022-01-10 13:42:30"
	},
	{
		"id" : 419,
		"name" : "Спортивний майданчик (баскетбольний), прибудинковий по вул. Миколи Закревського, 5",
		"address" : "вулиця Миколи Закревського, 5, Київ, Україна, 02000",
		"lat" : "50.4983049",
		"lng" : "30.5931992",
		"area" : "1152 кв.м",
		"type" : "баскетбольний майданчик",
		"district" : "Деснянський",
		"fixed" : "Безбалансовий",
		"peopleDisabilities" : 0,
		"created_at" : "2022-01-10 14:52:53",
		"updated_at" : "2023-12-01 11:36:20"
	},
	{
		"id" : 445,
		"name" : "Школа І-ІІІ ступенів № 119 Деснянського району міста Києва",
		"address" : "вулиця Миколи Закревського, 15Б, Київ, Україна, 02000",
		"lat" : "50.5002001",
		"lng" : "30.5989544",
		"area" : "42-22кв.м",
		"type" : "майданчики із синтетичним покриттям",
		"district" : "Деснянський",
		"fixed" : "Безбалансовий",
		"peopleDisabilities" : 0,
		"created_at" : "2022-01-10 15:33:52",
		"updated_at" : "2022-01-10 15:34:00"
	},
	{
		"id" : 446,
		"name" : "Школа І-ІІІ ступенів № 259 Деснянського району міста Києва",
		"address" : "проспект Володимира Маяковського, 21Г, Київ, Україна, 02000",
		"lat" : "50.5062994",
		"lng" : "30.5922977",
		"area" : "42-22кв.м",
		"type" : "майданчики із синтетичним покриттям",
		"district" : "Деснянський",
		"fixed" : "Безбалансовий",
		"peopleDisabilities" : 0,
		"created_at" : "2022-01-10 15:34:57",
		"updated_at" : "2022-01-10 15:34:57"
	},
	{
		"id" : 447,
		"name" : "Школа І-ІІІ ступенів № 282 Деснянського району міста Києва",
		"address" : "вулиця Миколи Закревського, 65А, Київ, Україна, 02000",
		"lat" : "50.51559",
		"lng" : "30.623326",
		"area" : "42-22кв.м",
		"type" : "майданчики із синтетичним покриттям",
		"district" : "Деснянський",
		"fixed" : "Безбалансовий",
		"peopleDisabilities" : 0,
		"created_at" : "2022-01-10 15:35:49",
		"updated_at" : "2022-01-10 15:35:49"
	},
	{
		"id" : 450,
		"name" : "Спеціалізована школа І-ІІІ ступенів № 189 з поглибленим вивченням англійської та німецької мов Деснянського району міста Києва",
		"address" : "вулиця Мілютенка, 5, Київ, Україна, 02000",
		"lat" : "50.4664162",
		"lng" : "30.6338722",
		"area" : "42-22кв.м",
		"type" : "майданчики із синтетичним покриттям",
		"district" : "Деснянський",
		"fixed" : "Безбалансовий",
		"peopleDisabilities" : 0,
		"created_at" : "2022-01-10 15:45:24",
		"updated_at" : "2022-01-10 15:45:24"
	},
	{
		"id" : 451,
		"name" : "Спеціалізована школа І-ІІІ ступенів № 247 з поглибленим вивченням іноземних мов Деснянського району міста Києва",
		"address" : "вулиця Миколи Закревського, 37Б, Київ, Україна, 02000",
		"lat" : "50.50569",
		"lng" : "30.612487",
		"area" : "42-22кв.м",
		"type" : "майданчики із синтетичним покриттям",
		"district" : "Деснянський",
		"fixed" : "Безбалансовий",
		"peopleDisabilities" : 0,
		"created_at" : "2022-01-10 15:46:43",
		"updated_at" : "2022-01-10 15:46:43"
	},
	{
		"id" : 452,
		"name" : "Спеціалізована школа І-ІІІ ступенів № 264 з поглибленим вивченням англійської мови Деснянського району міста Києва",
		"address" : "вул. Оноре де Бальзака, 8Г, Київ, Україна, 02000",
		"lat" : "50.500514",
		"lng" : "30.5822055",
		"area" : "42-22кв.м",
		"type" : "майданчики із синтетичним покриттям",
		"district" : "Деснянський",
		"fixed" : "Безбалансовий",
		"peopleDisabilities" : 0,
		"created_at" : "2022-01-10 15:47:47",
		"updated_at" : "2022-01-10 15:47:47"
	},
	{
		"id" : 454,
		"name" : "Гімназія № 283 ІІ-ІІІ ступенів Деснянського району міста Києва",
		"address" : "вулиця Костянтина Данькевича, 13, Київ, Україна, 02000",
		"lat" : "50.520363",
		"lng" : "30.6144964",
		"area" : "42-22кв.м",
		"type" : "майданчики із синтетичним покриттям",
		"district" : "Деснянський",
		"fixed" : "Безбалансовий",
		"peopleDisabilities" : 0,
		"created_at" : "2022-01-10 15:49:30",
		"updated_at" : "2022-01-10 15:49:30"
	},
	{
		"id" : 455,
		"name" : "Гімназія Києво – Могилянський колегіум",
		"address" : "вулиця Теодора Драйзера, 9А, Київ, Україна, 02000",
		"lat" : "50.5017857",
		"lng" : "30.6004019",
		"area" : "42-22кв.м",
		"type" : "майданчики із синтетичним покриттям",
		"district" : "Деснянський",
		"fixed" : "Безбалансовий",
		"peopleDisabilities" : 0,
		"created_at" : "2022-01-10 15:50:09",
		"updated_at" : "2022-01-10 15:50:09"
	},
	{
		"id" : 456,
		"name" : "Навчально-виховний комплекс «Дошкільний навчальний заклад (центр розвитку дитини) - школа І-ІІ ступенів № 278»",
		"address" : "вулиця Радосинська, 2А, Київ, Україна, 02000",
		"lat" : "50.511509",
		"lng" : "30.581959",
		"area" : "42-22кв.м",
		"type" : "майданчики із синтетичним покриттям",
		"district" : "Деснянський",
		"fixed" : "Безбалансовий",
		"peopleDisabilities" : 0,
		"created_at" : "2022-01-10 16:15:56",
		"updated_at" : "2022-01-10 16:15:56"
	},
	{
		"id" : 457,
		"name" : "Спеціалізована школа І-ІІІ ступенів № 322 з поглибленим вивченням англійської мови Деснянського району міста Києва",
		"address" : "проспект Володимира Маяковського, 38А, Київ, Україна, 02000",
		"lat" : "50.514048",
		"lng" : "30.618336",
		"area" : "42-22кв.м",
		"type" : "майданчики із синтетичним покриттям",
		"district" : "Деснянський",
		"fixed" : "Безбалансовий",
		"peopleDisabilities" : 0,
		"created_at" : "2022-01-10 16:16:43",
		"updated_at" : "2022-01-10 16:16:43"
	},
	{
		"id" : 458,
		"name" : "Навчально-виховний комплекс «Спеціалізована школа І ступеня з поглибленим вивченням української мови – гімназія № 39 імені гетьмана України Богдана Хмельницького» Деснянського району міста Києва",
		"address" : "Лісовий проспект, 17Г, Київ, Україна, 02000",
		"lat" : "50.484346",
		"lng" : "30.626638",
		"area" : "42-22кв.м",
		"type" : "майданчики із синтетичним покриттям",
		"district" : "Деснянський",
		"fixed" : "Безбалансовий",
		"peopleDisabilities" : 0,
		"created_at" : "2022-01-10 16:17:24",
		"updated_at" : "2022-01-10 16:17:24"
	},
	{
		"id" : 459,
		"name" : "Школа І-ІІІ ступенів № 300 Деснянського району міста Києва",
		"address" : "проспект Володимира Маяковського, 9, Київ, Україна, 02000",
		"lat" : "50.5089995",
		"lng" : "30.6092508",
		"area" : "42-22кв.м",
		"type" : "майданчики із синтетичним покриттям",
		"district" : "Деснянський",
		"fixed" : "Безбалансовий",
		"peopleDisabilities" : 0,
		"created_at" : "2022-01-10 16:18:23",
		"updated_at" : "2022-01-10 16:18:23"
	},
	{
		"id" : 460,
		"name" : "Школа І-ІІІ ступенів № 259 Деснянського району міста Києва",
		"address" : "проспект Володимира Маяковського, 21Г, Київ, Україна, 02000",
		"lat" : "50.5062994",
		"lng" : "30.5922977",
		"area" : "42-22кв.м",
		"type" : "майданчики із синтетичним покриттям",
		"district" : "Деснянський",
		"fixed" : "Безбалансовий",
		"peopleDisabilities" : 0,
		"created_at" : "2022-01-10 16:19:08",
		"updated_at" : "2022-01-10 16:19:08"
	},
	{
		"id" : 461,
		"name" : "Школа І-ІІІ ступенів № 213 Деснянського району міста Києва",
		"address" : "Лісовий проспект, 33Б, Київ, Україна, 02000",
		"lat" : "50.4870034",
		"lng" : "30.6360225",
		"area" : "42-22кв.м",
		"type" : "майданчики із синтетичним покриттям",
		"district" : "Деснянський",
		"fixed" : "Безбалансовий",
		"peopleDisabilities" : 0,
		"created_at" : "2022-01-10 16:19:40",
		"updated_at" : "2022-01-10 16:19:40"
	},
	{
		"id" : 462,
		"name" : "Спеціалізована школа І-ІІІ ступенів № 207 з поглибленим вивченням англійської мови Деснянського району міста Києва",
		"address" : "Лісовий проспект, 33А, Київ, Україна, 02000",
		"lat" : "50.4863635",
		"lng" : "30.6384537",
		"area" : "42-22кв.м",
		"type" : "майданчики із синтетичним покриттям",
		"district" : "Деснянський",
		"fixed" : "Безбалансовий",
		"peopleDisabilities" : 0,
		"created_at" : "2022-01-10 16:20:13",
		"updated_at" : "2022-01-10 16:20:13"
	},
	{
		"id" : 463,
		"name" : "Школа І-ІІІ ступенів № 276 Деснянського району міста Києва",
		"address" : "вулиця Сержа Лифаря, 14, Київ, Україна, 02000",
		"lat" : "50.515373",
		"lng" : "30.6111053",
		"area" : "42-22кв.м",
		"type" : "майданчики із синтетичним покриттям",
		"district" : "Деснянський",
		"fixed" : "Безбалансовий",
		"peopleDisabilities" : 0,
		"created_at" : "2022-01-10 16:20:47",
		"updated_at" : "2022-01-10 16:20:47"
	},
	{
		"id" : 464,
		"name" : "Гімназія «Троєщина»",
		"address" : "вулиця Марини Цвєтаєвої, 14В, Київ, Україна, 02000",
		"lat" : "50.5258517",
		"lng" : "30.6161723",
		"area" : "42-22кв.м",
		"type" : "майданчики із синтетичним покриттям",
		"district" : "Деснянський",
		"fixed" : "Безбалансовий",
		"peopleDisabilities" : 0,
		"created_at" : "2022-01-10 16:21:19",
		"updated_at" : "2022-01-10 16:21:19"
	},
	{
		"id" : 465,
		"name" : "Школа І-ІІІ ступенів № 321 Деснянського району міста Києва",
		"address" : "вулиця Теодора Драйзера, 40Б, Київ, Україна, 02000",
		"lat" : "50.515102",
		"lng" : "30.595762",
		"area" : "42-22кв.м",
		"type" : "майданчики із синтетичним покриттям",
		"district" : "Деснянський",
		"fixed" : "Безбалансовий",
		"peopleDisabilities" : 0,
		"created_at" : "2022-01-10 16:21:56",
		"updated_at" : "2022-01-10 16:21:56"
	},
	{
		"id" : 466,
		"name" : "Спеціалізована школа І-ІІІ ступенів № 250 з поглибленим вивченням математики Деснянського району міста Києва",
		"address" : "проспект Володимира Маяковського, 49Б, Київ, Україна, 02000",
		"lat" : "50.511575",
		"lng" : "30.606197",
		"area" : "42-22кв.м",
		"type" : "майданчики із синтетичним покриттям",
		"district" : "Деснянський",
		"fixed" : "Безбалансовий",
		"peopleDisabilities" : 0,
		"created_at" : "2022-01-11 09:14:51",
		"updated_at" : "2022-01-11 09:14:51"
	},
	{
		"id" : 467,
		"name" : "ДЗФЗН «Спорт для всіх»",
		"address" : "вулиця Теодора Драйзера, 2Б, Київ, Україна, 02000",
		"lat" : "50.501637",
		"lng" : "30.607734",
		"area" : "Ширина-90м. Довжина-155,4м.",
		"type" : "стадіон",
		"district" : "Деснянський",
		"fixed" : "ДЦФЗ «Спорт для всіх»",
		"peopleDisabilities" : 1,
		"created_at" : "2022-01-11 09:20:50",
		"updated_at" : "2022-06-21 11:41:39"
	},
	{
		"id" : 473,
		"name" : "Вище професійне училище № 25",
		"address" : "вулиця Старосільська, 2, Київ, Україна, 02000",
		"lat" : "50.4746448",
		"lng" : "30.5931212",
		"area" : "1,5",
		"type" : "стадіон",
		"district" : "Деснянський",
		"fixed" : "Вище професійне училище № 25",
		"peopleDisabilities" : 1,
		"created_at" : "2022-01-11 12:40:14",
		"updated_at" : "2022-01-11 12:40:14"
	},
	{
		"id" : 474,
		"name" : "Стадіон \"Дніпровець\"",
		"address" : "вулиця Алматинська, 60, Київ, Україна, 02000",
		"lat" : "50.4500131",
		"lng" : "30.6776091",
		"area" : "28 788,63",
		"type" : "стадіон",
		"district" : "Дніпровський",
		"fixed" : "Управління освіти Дніпровської РДА",
		"peopleDisabilities" : 1,
		"created_at" : "2022-01-11 12:42:10",
		"updated_at" : "2023-08-31 12:42:09"
	},
	{
		"id" : 475,
		"name" : "Стадіон \"Русанівець\"",
		"address" : "бульвар Ігоря Шамо, 12, Київ, Україна, 02000",
		"lat" : "50.4389688",
		"lng" : "30.5970522",
		"area" : "1,9",
		"type" : "стадіон",
		"district" : "Дніпровський",
		"fixed" : "Дитячо-юнацька спортивна школа \"Старт\"",
		"peopleDisabilities" : 1,
		"created_at" : "2022-01-11 12:44:24",
		"updated_at" : "2022-01-11 12:44:24"
	},
	{
		"id" : 476,
		"name" : "Легкоатлетичний манеж КМШВСМ",
		"address" : "проспект Павла Тичини, 18, Київ, Україна, 02000",
		"lat" : "50.4275234",
		"lng" : "30.6044878",
		"area" : "1,57",
		"type" : "спортивний комплекс",
		"district" : "Дніпровський",
		"fixed" : "Київська міська школа вищої спортивної майстерності",
		"peopleDisabilities" : 1,
		"created_at" : "2022-01-11 14:07:00",
		"updated_at" : "2022-01-11 14:07:00"
	},
	{
		"id" : 477,
		"name" : "Майданчик з тренажерним обладнанням",
		"address" : "вулиця Юрія Шумського, 3, Київ, Україна, 02000",
		"lat" : "50.4233792",
		"lng" : "30.6045023",
		"area" : "0,01",
		"type" : "майданчик з тренажерним обладнанням",
		"district" : "Деснянський",
		"fixed" : "КП по утриманню зелених насаджень",
		"peopleDisabilities" : 0,
		"created_at" : "2022-01-11 14:16:44",
		"updated_at" : "2022-01-11 14:16:44"
	},
	{
		"id" : 478,
		"name" : "Майданчик з тренажерним обладнанням",
		"address" : "вул. Червоноткацька, 2, Київ, Україна, 02000",
		"lat" : "50.4489683",
		"lng" : "30.6108311",
		"area" : "0,015",
		"type" : "майданчик з тренажерним обладнанням",
		"district" : "Дніпровський",
		"fixed" : "Дніпровське РУ ГУ МВС України в м. Києві",
		"peopleDisabilities" : 0,
		"created_at" : "2022-01-11 14:18:49",
		"updated_at" : "2022-01-11 14:18:49"
	},
	{
		"id" : 479,
		"name" : "Майданчик з тренажерним обладнанням Дитячої спортивно-оздоровчої бази Спортивного клубу 2000-С.Бобровника",
		"address" : "Спортивна площа, 23, Київ, Україна, 02000",
		"lat" : "50.4375822",
		"lng" : "30.5217503",
		"area" : "1 га",
		"type" : "майданчик з тренажерним обладнанням",
		"district" : "Дніпровський",
		"fixed" : "Спортивний клуб 2000-С. Бобровника",
		"peopleDisabilities" : 0,
		"created_at" : "2022-01-11 14:49:10",
		"updated_at" : "2022-04-19 19:00:51"
	},
	{
		"id" : 480,
		"name" : "Майданчик з тренажерним обладнанням",
		"address" : "вулиця Івана Сергієнка, 7, Київ, Україна, 02000",
		"lat" : "50.4458056",
		"lng" : "30.6299902",
		"area" : "0,004 га",
		"type" : "майданчик з тренажерним обладнанням",
		"district" : "Дніпровський",
		"fixed" : "Київський енергетичний коледж",
		"peopleDisabilities" : 0,
		"created_at" : "2022-01-11 14:59:37",
		"updated_at" : "2022-01-11 14:59:37"
	},
	{
		"id" : 481,
		"name" : "Майданчик з тренажерним обладнанням",
		"address" : "проспект Юрія Гагаріна, 16, Київ, Україна, 02000",
		"lat" : "50.4493401",
		"lng" : "30.6300892",
		"area" : "0,008 га",
		"type" : "майданчик з тренажерним обладнанням",
		"district" : "Дніпровський",
		"fixed" : "Фаховий коледж \"Універсум\"",
		"peopleDisabilities" : 0,
		"created_at" : "2022-01-11 15:00:36",
		"updated_at" : "2022-01-11 15:00:36"
	},
	{
		"id" : 482,
		"name" : "Майданчик з тренажерним обладнанням",
		"address" : "вулиця Генерала Жмаченка, 26, Київ, Україна, 02000",
		"lat" : "50.4686087",
		"lng" : "30.6126826",
		"area" : "0,02 га",
		"type" : "майданчик з тренажерним обладнанням",
		"district" : "Дніпровський",
		"fixed" : "Київський фаховий коледж туризму та готельного господарства",
		"peopleDisabilities" : 0,
		"created_at" : "2022-01-11 15:01:20",
		"updated_at" : "2022-01-11 15:01:20"
	},
	{
		"id" : 483,
		"name" : "Майданчик з тренажерним обладнанням",
		"address" : "вулиця Машиністівська, 1Б, Київ, Україна, 02000",
		"lat" : "50.443745",
		"lng" : "30.675491",
		"area" : "0,040 га",
		"type" : "майданчик з тренажерним обладнанням",
		"district" : "Дніпровський",
		"fixed" : "Київський професійний ліцей транспорту",
		"peopleDisabilities" : 0,
		"created_at" : "2022-01-11 15:02:17",
		"updated_at" : "2022-01-11 15:02:17"
	},
	{
		"id" : 484,
		"name" : "Спортивний майданчик з тренажерним обладнанням",
		"address" : "проспект Соборності, 12В, Київ, Україна, 02000",
		"lat" : "50.4420307",
		"lng" : "30.6182316",
		"area" : "0,0012 га",
		"type" : "майданчик з тренажерним обладнанням",
		"district" : "Дніпровський",
		"fixed" : "Спеціалізована школа І ступеня - гімназія №167 з поглибленим вивченням німецької мови",
		"peopleDisabilities" : 0,
		"created_at" : "2022-01-11 15:03:24",
		"updated_at" : "2022-01-11 15:03:24"
	},
	{
		"id" : 485,
		"name" : "Спортивний майданчик з тренажерним обладнанням",
		"address" : "вулиця Березняківська, 30Б, Київ, Україна, 02000",
		"lat" : "50.427575",
		"lng" : "30.611378",
		"area" : "0,0308 га",
		"type" : "майданчик з тренажерним обладнанням",
		"district" : "Дніпровський",
		"fixed" : "Навчально-виховний комплекс №30 \"Еконад\"",
		"peopleDisabilities" : 0,
		"created_at" : "2022-01-11 15:04:52",
		"updated_at" : "2022-01-11 15:04:52"
	},
	{
		"id" : 486,
		"name" : "Спортивний майданчик з тренажерним обладнанням",
		"address" : "вулиця Юності, 3, Київ, Україна, 02000",
		"lat" : "50.4638458",
		"lng" : "30.6153935",
		"area" : "0,01 га",
		"type" : "майданчик з тренажерним обладнанням",
		"district" : "Дніпровський",
		"fixed" : "Навчально-виховний комплекс \"Доминанта\"",
		"peopleDisabilities" : 0,
		"created_at" : "2022-01-11 15:07:06",
		"updated_at" : "2022-01-11 15:07:06"
	},
	{
		"id" : 487,
		"name" : "Спортивний майданчик з тренажерним обладнанням",
		"address" : "вулиця Сулеймана Стальського, 26А, Київ, Україна, 02000",
		"lat" : "50.4838257",
		"lng" : "30.6079226",
		"area" : "0,0228 га",
		"type" : "майданчик з тренажерним обладнанням",
		"district" : "Дніпровський",
		"fixed" : "Середня загальноосвітня школа І - ІІІ ступенів №4 м. Києва",
		"peopleDisabilities" : 0,
		"created_at" : "2022-01-11 15:09:08",
		"updated_at" : "2022-01-11 15:09:08"
	},
	{
		"id" : 488,
		"name" : "Спортивний майданчик з тренажерним обладнанням",
		"address" : "вулиця Каунаська, 2, Київ, Україна, 02000",
		"lat" : "50.4384214",
		"lng" : "30.6225431",
		"area" : "0,002 га",
		"type" : "майданчик з тренажерним обладнанням",
		"district" : "Дніпровський",
		"fixed" : "Середня загальноосвітня школа №66",
		"peopleDisabilities" : 0,
		"created_at" : "2022-01-11 15:10:09",
		"updated_at" : "2022-01-11 15:10:09"
	},
	{
		"id" : 489,
		"name" : "Спортивний майданчик з тренажерним обладнанням",
		"address" : "вулиця Івана Микитенка, 7, Київ, Україна, 02000",
		"lat" : "50.4865565",
		"lng" : "30.5970586",
		"area" : "0,01 га",
		"type" : "майданчик з тренажерним обладнанням",
		"district" : "Дніпровський",
		"fixed" : "Спеціалізована школа I-III ступенів № 98 м. Києва з поглибленим вивченням англійської мови",
		"peopleDisabilities" : 0,
		"created_at" : "2022-01-11 15:18:15",
		"updated_at" : "2022-01-11 15:18:15"
	},
	{
		"id" : 490,
		"name" : "Спортивний майданчик з тренажерним обладнанням",
		"address" : "вулиця Алматинська, 89, Київ, Україна, 02000",
		"lat" : "50.4461036",
		"lng" : "30.6706097",
		"area" : "0,012 га",
		"type" : "майданчик з тренажерним обладнанням",
		"district" : "Дніпровський",
		"fixed" : "Середня загальноосвітня школа І-ІІІ ступенів №103",
		"peopleDisabilities" : 0,
		"created_at" : "2022-01-11 15:23:33",
		"updated_at" : "2022-01-11 15:23:33"
	},
	{
		"id" : 491,
		"name" : "Спортивний майданчик з тренажерним обладнанням",
		"address" : "вулиця Алматинська, 89, Київ, Україна, 02000",
		"lat" : "50.4461036",
		"lng" : "30.6706097",
		"area" : "0,012 га",
		"type" : "майданчик з тренажерним обладнанням",
		"district" : "Дніпровський",
		"fixed" : "Середня загальноосвітня школа І-ІІІ ступенів №103 м. Києва",
		"peopleDisabilities" : 0,
		"created_at" : "2022-01-11 15:27:42",
		"updated_at" : "2022-01-11 15:27:42"
	},
	{
		"id" : 492,
		"name" : "Спортивний майданчик з тренажерним обладнанням",
		"address" : "проспект Миру, 11, Київ, Україна, 02000",
		"lat" : "50.4439664",
		"lng" : "30.6174987",
		"area" : "0,0225 га",
		"type" : "майданчик з тренажерним обладнанням",
		"district" : "Дніпровський",
		"fixed" : "Безбалансовий",
		"peopleDisabilities" : 0,
		"created_at" : "2022-01-11 15:29:12",
		"updated_at" : "2022-01-11 15:29:12"
	},
	{
		"id" : 493,
		"name" : "Спортивний майданчик з тренажерним обладнанням",
		"address" : "вулиця Сулеймана Стальського, 12, Київ, Україна, 02000",
		"lat" : "50.4836042",
		"lng" : "30.5990167",
		"area" : "0,0204 га",
		"type" : "майданчик з тренажерним обладнанням",
		"district" : "Дніпровський",
		"fixed" : "Середня загальноосвітня школа І-ІІІ ступенів №158",
		"peopleDisabilities" : 1,
		"created_at" : "2022-01-11 15:30:28",
		"updated_at" : "2022-01-11 15:30:38"
	},
	{
		"id" : 494,
		"name" : "Спортивний майданчик з тренажерним обладнанням",
		"address" : "вулиця Едуарда Вільде, 5, Київ, Україна, 02000",
		"lat" : "50.4889192",
		"lng" : "30.6054209",
		"area" : "0,015 га",
		"type" : "майданчик з тренажерним обладнанням",
		"district" : "Дніпровський",
		"fixed" : "Середня загальноосвітня школа №184",
		"peopleDisabilities" : 0,
		"created_at" : "2022-01-11 15:37:36",
		"updated_at" : "2022-01-11 15:37:40"
	},
	{
		"id" : 495,
		"name" : "Спортивний майданчик з тренажерним обладнанням",
		"address" : "вулиця Будівельників, 10, Київ, Україна, 02000",
		"lat" : "50.4468971",
		"lng" : "30.6227876",
		"area" : "0,006",
		"type" : "майданчик з тренажерним обладнанням",
		"district" : "Дніпровський",
		"fixed" : "Спеціалізована школа І-ІІІ ступенів №188",
		"peopleDisabilities" : 1,
		"created_at" : "2022-01-11 15:38:45",
		"updated_at" : "2022-01-11 15:38:45"
	},
	{
		"id" : 496,
		"name" : "Середня загальноосвітня школа І-ІІІ ступенів №224",
		"address" : "вулиця Миколи Кибальчича, 5, Київ, Україна, 02000",
		"lat" : "50.4911839",
		"lng" : "30.5959765",
		"area" : "0,015 га",
		"type" : "майданчик з тренажерним обладнанням",
		"district" : "Дніпровський",
		"fixed" : "Управління освіти Дніпровської РДА",
		"peopleDisabilities" : 0,
		"created_at" : "2022-01-11 15:39:44",
		"updated_at" : "2022-01-11 15:40:13"
	},